{
"type": "FeatureCollection",
"crs": { "type": "name", "properties": { "name": "urn:ogc:def:crs:OGC:1.3:CRS84" } },
"features": [
{ "type": "Feature", "properties": { "OBJECTID": 1, "NAME": "National Capital Bank of Washington - Capitol Hill", "ADDRESS": "316 PENNSYLVANIA AVENUE SE", "ZIPCODE": "20003", "ADDRESS_ID": 39317, "Y": 135465.63, "X": 399901.19, "DIFFX": 0, "DIFFY": 0 }, "geometry": { "type": "Point", "coordinates": [ -77.001141176777722, 38.887038688213984 ] } },
{ "type": "Feature", "properties": { "OBJECTID": 2, "NAME": "National Capital Bank of Washington - Friendship Heights", "ADDRESS": "5228 44TH STREET NW", "ZIPCODE": "20015", "ADDRESS_ID": 267740, "Y": 143347.29, "X": 392508.24, "DIFFX": 0, "DIFFY": 0 }, "geometry": { "type": "Point", "coordinates": [ -77.086439059684224, 38.958007276435374 ] } },
{ "type": "Feature", "properties": { "OBJECTID": 3, "NAME": "National Cooperative Bank", "ADDRESS": "2001 PENNSYLVANIA AVENUE NW", "ZIPCODE": "20006", "ADDRESS_ID": 243321, "Y": 137091.99, "X": 396067.85, "DIFFX": 0, "DIFFY": 0 }, "geometry": { "type": "Point", "coordinates": [ -77.045333946217781, 38.901680748737363 ] } },
{ "type": "Feature", "properties": { "OBJECTID": 4, "NAME": "PNC Bank, NA - 14th and K", "ADDRESS": "1400 K STREET NW", "ZIPCODE": "20005", "ADDRESS_ID": 240269, "Y": 137146.36, "X": 397188.82, "DIFFX": 0, "DIFFY": 0 }, "geometry": { "type": "Point", "coordinates": [ -77.032411104118907, 38.902174833280291 ] } },
{ "type": "Feature", "properties": { "OBJECTID": 5, "NAME": "PNC Bank, NA - 14th and P", "ADDRESS": "1405 P STREET NW", "ZIPCODE": "20005", "ADDRESS_ID": 303731, "Y": 137993.97, "X": 397200.84, "DIFFX": 0, "DIFFY": 0 }, "geometry": { "type": "Point", "coordinates": [ -77.032275986106569, 38.909810439192121 ] } },
{ "type": "Feature", "properties": { "OBJECTID": 6, "NAME": "PNC Bank, NA - 1919 Pennsylvania Avenue", "ADDRESS": "1919 PENNSYLVANIA AVENUE NW", "ZIPCODE": "20006", "ADDRESS_ID": 241082, "Y": 137007.6, "X": 396156.6, "DIFFX": 0, "DIFFY": 0 }, "geometry": { "type": "Point", "coordinates": [ -77.044310322660579, 38.900920926045217 ] } },
{ "type": "Feature", "properties": { "OBJECTID": 7, "NAME": "PNC Bank, NA - 20th and L", "ADDRESS": "1920 L STREET NW", "ZIPCODE": "20036", "ADDRESS_ID": 242545, "Y": 137294.74, "X": 396141.83, "DIFFX": 0, "DIFFY": 0 }, "geometry": { "type": "Point", "coordinates": [ -77.044482209343087, 38.903507520574934 ] } },
{ "type": "Feature", "properties": { "OBJECTID": 8, "NAME": "PNC Bank, NA - 7th and Eye", "ADDRESS": "833 7TH STREET NW", "ZIPCODE": "20001", "ADDRESS_ID": 300518, "Y": 136983.89, "X": 398123.16, "DIFFX": 0, "DIFFY": 0 }, "geometry": { "type": "Point", "coordinates": [ -77.021639078091496, 38.900713737348546 ] } },
{ "type": "Feature", "properties": { "OBJECTID": 9, "NAME": "PNC Bank, NA - 800 H Street", "ADDRESS": "800 H STREET NE", "ZIPCODE": "20002", "ADDRESS_ID": 151153, "Y": 136953.3, "X": 400454.84, "DIFFX": 0, "DIFFY": 0 }, "geometry": { "type": "Point", "coordinates": [ -76.994758766923454, 38.900440058603358 ] } },
{ "type": "Feature", "properties": { "OBJECTID": 10, "NAME": "PNC Bank, NA - Adams Morgan", "ADDRESS": "1779 COLUMBIA ROAD NW", "ZIPCODE": "20009", "ADDRESS_ID": 235934, "Y": 139493.12, "X": 396333.82, "DIFFX": 0, "DIFFY": 0 }, "geometry": { "type": "Point", "coordinates": [ -77.042280541556337, 38.923312091158074 ] } },
{ "type": "Feature", "properties": { "OBJECTID": 11, "NAME": "PNC Bank, NA - Anacostia", "ADDRESS": "2000 MARTIN LUTHER KING JR AVENUE SE", "ZIPCODE": "20020", "ADDRESS_ID": 151471, "Y": 133176.18, "X": 400967.07, "DIFFX": 0, "DIFFY": 0 }, "geometry": { "type": "Point", "coordinates": [ -76.988858956295957, 38.866413887885869 ] } },
{ "type": "Feature", "properties": { "OBJECTID": 12, "NAME": "PNC Bank, NA - Brookland", "ADDRESS": "3806 12TH STREET NE", "ZIPCODE": "20017", "ADDRESS_ID": 156248, "Y": 140966.26, "X": 400770.95, "DIFFX": 0, "DIFFY": 0 }, "geometry": { "type": "Point", "coordinates": [ -76.991110062561788, 38.936589905320979 ] } },
{ "type": "Feature", "properties": { "OBJECTID": 13, "NAME": "PNC Bank, NA - Capitol Hill", "ADDRESS": "650 PENNSYLVANIA AVENUE SE", "ZIPCODE": "20003", "ADDRESS_ID": 280033, "Y": 135280.49, "X": 400265.23, "DIFFX": 0, "DIFFY": 0 }, "geometry": { "type": "Point", "coordinates": [ -76.996945286361083, 38.885370842020343 ] } },
{ "type": "Feature", "properties": { "OBJECTID": 14, "NAME": "PNC Bank, NA - Chevy Chase", "ADDRESS": "5530 CONNECTICUT AVENUE NW", "ZIPCODE": "20015", "ADDRESS_ID": 263837, "Y": 143991.09, "X": 393463.49, "DIFFX": 0, "DIFFY": 0 }, "geometry": { "type": "Point", "coordinates": [ -77.075423929962199, 38.963814419018505 ] } },
{ "type": "Feature", "properties": { "OBJECTID": 15, "NAME": "Bank of Georgetown - The Winsor Branch", "ADDRESS": "1115 30th street nw", "ZIPCODE": "20007", "ADDRESS_ID": 304893, "Y": 137423.77, "X": 394884.41, "DIFFX": 0, "DIFFY": 0 }, "geometry": { "type": "Point", "coordinates": [ -77.058979663452902, 38.904663449119774 ] } },
{ "type": "Feature", "properties": { "OBJECTID": 16, "NAME": "Capital One Bank - First and H Street", "ADDRESS": "85 H Street NW", "ZIPCODE": "20001", "ADDRESS_ID": 310066, "Y": 136949.97, "X": 398993.1, "DIFFX": 0, "DIFFY": 0 }, "geometry": { "type": "Point", "coordinates": [ -77.011610089961152, 38.90040960113047 ] } },
{ "type": "Feature", "properties": { "OBJECTID": 17, "NAME": "TD Bank, NA", "ADDRESS": "2000 K Street NW", "ZIPCODE": "20006", "ADDRESS_ID": 242502, "Y": 137140.73, "X": 396072.67, "DIFFX": 0, "DIFFY": 0 }, "geometry": { "type": "Point", "coordinates": [ -77.045278657725788, 38.902119837564669 ] } },
{ "type": "Feature", "properties": { "OBJECTID": 18, "NAME": "Atlantic Trust Company", "ADDRESS": "1201 F STREET NW", "ZIPCODE": "20004", "ADDRESS_ID": 240934, "Y": 136645.58, "X": 397525.9, "DIFFX": null, "DIFFY": null }, "geometry": { "type": "Point", "coordinates": [ -77.028523257805361, 38.897664640300938 ] } },
{ "type": "Feature", "properties": { "OBJECTID": 19, "NAME": "Bank of America", "ADDRESS": "600 14TH STREET NW", "ZIPCODE": "20005", "ADDRESS_ID": 300970, "Y": 136648.98, "X": 397200.36, "DIFFX": null, "DIFFY": null }, "geometry": { "type": "Point", "coordinates": [ -77.032276037227348, 38.897694292102074 ] } },
{ "type": "Feature", "properties": { "OBJECTID": 20, "NAME": "Carolina Premier Bank", "ADDRESS": "1299 PENNSYLVANIA AVENUE NW", "ZIPCODE": "20004", "ADDRESS_ID": 285503, "Y": 136497.57, "X": 397456.71, "DIFFX": null, "DIFFY": null }, "geometry": { "type": "Point", "coordinates": [ -77.029320319424258, 38.896331114763051 ] } },
{ "type": "Feature", "properties": { "OBJECTID": 21, "NAME": "Wells Fargo Bank - Mt Vernon Square", "ADDRESS": "490 L Street NW", "ZIPCODE": "20001", "ADDRESS_ID": 304767, "Y": 137292.77, "X": 398408.1, "DIFFX": 0, "DIFFY": 0 }, "geometry": { "type": "Point", "coordinates": [ -77.018354917404523, 38.90349680088984 ] } },
{ "type": "Feature", "properties": { "OBJECTID": 22, "NAME": "Wells Fargo Bank - U Street", "ADDRESS": "1934 14TH ST NW", "ZIPCODE": "20009", "ADDRESS_ID": 309040, "Y": 138749.26, "X": 397205.32, "DIFFX": 0, "DIFFY": 0 }, "geometry": { "type": "Point", "coordinates": [ -77.032227407173366, 38.916614361186106 ] } },
{ "type": "Feature", "properties": { "OBJECTID": 23, "NAME": "BB&T - U Street", "ADDRESS": "1804 14TH ST NW", "ZIPCODE": "20009", "ADDRESS_ID": 240081, "Y": 138502.54, "X": 397205.36, "DIFFX": 0, "DIFFY": 0 }, "geometry": { "type": "Point", "coordinates": [ -77.032225941590198, 38.914391825053187 ] } },
{ "type": "Feature", "properties": { "OBJECTID": 24, "NAME": "Amalgamated Bank", "ADDRESS": "1825 K STREET NW", "ZIPCODE": "20006", "ADDRESS_ID": 240969, "Y": 137223.83, "X": 396319.26, "DIFFX": 0, "DIFFY": 0 }, "geometry": { "type": "Point", "coordinates": [ -77.042436281272856, 38.902869499140209 ] } },
{ "type": "Feature", "properties": { "OBJECTID": 25, "NAME": "Asian Development Bank", "ADDRESS": "900 17TH STREET NW", "ZIPCODE": "20006", "ADDRESS_ID": 279977, "Y": 137084.41, "X": 396545.09, "DIFFX": 0, "DIFFY": 0 }, "geometry": { "type": "Point", "coordinates": [ -77.039832063113167, 38.901614470898707 ] } },
{ "type": "Feature", "properties": { "OBJECTID": 26, "NAME": "Bank of America - 15th and Pennsylvania Avenue", "ADDRESS": "1501 PENNSYLVANIA AVENUE NW", "ZIPCODE": "20005", "ADDRESS_ID": 279202, "Y": 136808.64, "X": 397058.53, "DIFFX": 0, "DIFFY": 0 }, "geometry": { "type": "Point", "coordinates": [ -77.033911711948193, 38.899132104015798 ] } },
{ "type": "Feature", "properties": { "OBJECTID": 27, "NAME": "Bank of America - 2001 Pennsylvania Avenue", "ADDRESS": "2001 PENNSYLVANIA AVENUE NW", "ZIPCODE": "20006", "ADDRESS_ID": 243321, "Y": 137091.99, "X": 396067.85, "DIFFX": 0, "DIFFY": 0 }, "geometry": { "type": "Point", "coordinates": [ -77.045333946217781, 38.901680748737363 ] } },
{ "type": "Feature", "properties": { "OBJECTID": 28, "NAME": "Bank of America - Adams Morgan", "ADDRESS": "1835 COLUMBIA ROAD NW", "ZIPCODE": "20009", "ADDRESS_ID": 295012, "Y": 139304.24, "X": 396204.7, "DIFFX": 0, "DIFFY": 0 }, "geometry": { "type": "Point", "coordinates": [ -77.043768504180093, 38.921610051006354 ] } },
{ "type": "Feature", "properties": { "OBJECTID": 29, "NAME": "Bank of America - Anacostia", "ADDRESS": "2100 MARTIN LUTHER KING JR AVENUE SE", "ZIPCODE": "20020", "ADDRESS_ID": 51883, "Y": 133068.7, "X": 400934.01, "DIFFX": 0, "DIFFY": 0 }, "geometry": { "type": "Point", "coordinates": [ -76.989240045016047, 38.865445699309639 ] } },
{ "type": "Feature", "properties": { "OBJECTID": 30, "NAME": "Bank of America - Capitol Hill", "ADDRESS": "201 PENNSYLVANIA AVENUE SE", "ZIPCODE": "20003", "ADDRESS_ID": 52920, "Y": 135493.83, "X": 399715.89, "DIFFX": 0, "DIFFY": 0 }, "geometry": { "type": "Point", "coordinates": [ -77.003276974950438, 38.887292684119949 ] } },
{ "type": "Feature", "properties": { "OBJECTID": 31, "NAME": "Bank of America - Cleveland Park", "ADDRESS": "3401 CONNECTICUT AVENUE NW", "ZIPCODE": "20008", "ADDRESS_ID": 275650, "Y": 140756.59, "X": 395009.18, "DIFFX": 0, "DIFFY": 0 }, "geometry": { "type": "Point", "coordinates": [ -77.057565427310166, 38.934687295931326 ] } },
{ "type": "Feature", "properties": { "OBJECTID": 32, "NAME": "Bank of America - Columbia Heights", "ADDRESS": "3100 14TH STREET NW", "ZIPCODE": "20010", "ADDRESS_ID": 306304, "Y": 140158.41, "X": 397140.04, "DIFFX": 0, "DIFFY": 0 }, "geometry": { "type": "Point", "coordinates": [ -77.03298601467985, 38.929308227973344 ] } },
{ "type": "Feature", "properties": { "OBJECTID": 33, "NAME": "Bank of America - Dupont Circle", "ADDRESS": "3 DUPONT CIRCLE NW", "ZIPCODE": "20036", "ADDRESS_ID": 302539, "Y": 137930.49, "X": 396144.62, "DIFFX": 0, "DIFFY": 0 }, "geometry": { "type": "Point", "coordinates": [ -77.044453613377129, 38.90923459062185 ] } },
{ "type": "Feature", "properties": { "OBJECTID": 34, "NAME": "Bank of America - Farragut Square", "ADDRESS": "888 17TH STREET NW", "ZIPCODE": "20006", "ADDRESS_ID": 218778, "Y": 137027.13, "X": 396550.2, "DIFFX": 0, "DIFFY": 0 }, "geometry": { "type": "Point", "coordinates": [ -77.039772864989885, 38.901098492267352 ] } },
{ "type": "Feature", "properties": { "OBJECTID": 35, "NAME": "Bank of America - Friendship Heights", "ADDRESS": "5201 WISCONSIN AVENUE NW", "ZIPCODE": "20015", "ADDRESS_ID": 274083, "Y": 143262.67, "X": 392755.93, "DIFFX": 0, "DIFFY": 0 }, "geometry": { "type": "Point", "coordinates": [ -77.08358042447891, 38.957247075413953 ] } },
{ "type": "Feature", "properties": { "OBJECTID": 36, "NAME": "Bank of America - Georgetown", "ADDRESS": "1339 WISCONSIN AVENUE NW", "ZIPCODE": "20007", "ADDRESS_ID": 223694, "Y": 137772.9, "X": 394509.85, "DIFFX": 0, "DIFFY": 0 }, "geometry": { "type": "Point", "coordinates": [ -77.063300736656288, 38.907806273798322 ] } },
{ "type": "Feature", "properties": { "OBJECTID": 37, "NAME": "Bank of America - Georgia Avenue", "ADDRESS": "3500 GEORGIA AVENUE NW", "ZIPCODE": "20010", "ADDRESS_ID": 232241, "Y": 140581.42, "X": 397907.39, "DIFFX": 0, "DIFFY": 0 }, "geometry": { "type": "Point", "coordinates": [ -77.024137508458665, 38.933120995311683 ] } },
{ "type": "Feature", "properties": { "OBJECTID": 38, "NAME": "Bank of America - K Street", "ADDRESS": "1801 K STREET NW", "ZIPCODE": "20006", "ADDRESS_ID": 279398, "Y": 137238.84, "X": 396353.41, "DIFFX": 0, "DIFFY": 0 }, "geometry": { "type": "Point", "coordinates": [ -77.042042657311882, 38.90300485689319 ] } },
{ "type": "Feature", "properties": { "OBJECTID": 39, "NAME": "Bank of America - Metro Center", "ADDRESS": "700 13TH STREET NW", "ZIPCODE": "20005", "ADDRESS_ID": 240654, "Y": 136765.16, "X": 397397.67, "DIFFX": 0, "DIFFY": 0 }, "geometry": { "type": "Point", "coordinates": [ -77.030001922871605, 38.898741490007765 ] } },
{ "type": "Feature", "properties": { "OBJECTID": 40, "NAME": "Bank of America - Minnesota Avenue", "ADDRESS": "3821 MINNESOTA AVENUE NE", "ZIPCODE": "20019", "ADDRESS_ID": 30095, "Y": 136069.47, "X": 404279.85, "DIFFX": 0, "DIFFY": 0 }, "geometry": { "type": "Point", "coordinates": [ -76.950668543641058, 38.892467896092313 ] } },
{ "type": "Feature", "properties": { "OBJECTID": 41, "NAME": "Bank of America - Mount Pleasant", "ADDRESS": "3131 MOUNT PLEASANT STREET NW", "ZIPCODE": "20010", "ADDRESS_ID": 284590, "Y": 140195.61, "X": 396757.61, "DIFFX": 0, "DIFFY": 0 }, "geometry": { "type": "Point", "coordinates": [ -77.037396729850457, 38.92964200900677 ] } },
{ "type": "Feature", "properties": { "OBJECTID": 42, "NAME": "Bank of America - Mt Vernon Square", "ADDRESS": "901 K STREET NW", "ZIPCODE": "20001", "ADDRESS_ID": 306492, "Y": 137213.76, "X": 397791.0, "DIFFX": 0, "DIFFY": 0 }, "geometry": { "type": "Point", "coordinates": [ -77.025469060965278, 38.902783716297833 ] } },
{ "type": "Feature", "properties": { "OBJECTID": 43, "NAME": "Bank of America - Northeast", "ADDRESS": "722 H STREET NE", "ZIPCODE": "20002", "ADDRESS_ID": 149093, "Y": 136949.44, "X": 400417.75, "DIFFX": 0, "DIFFY": 0 }, "geometry": { "type": "Point", "coordinates": [ -76.995186352664902, 38.900405304728388 ] } },
{ "type": "Feature", "properties": { "OBJECTID": 44, "NAME": "Bank of America - Pennsylvania Avenue", "ADDRESS": "1001 PENNSYLVANIA AVENUE NW", "ZIPCODE": "20004", "ADDRESS_ID": 239376, "Y": 136355.77, "X": 397700.68, "DIFFX": 0, "DIFFY": 0 }, "geometry": { "type": "Point", "coordinates": [ -77.026507455733778, 38.895054400428052 ] } },
{ "type": "Feature", "properties": { "OBJECTID": 45, "NAME": "Bank of America - Rhode Island Avenue", "ADDRESS": "915 RHODE ISLAND AVENUE NE", "ZIPCODE": "20018", "ADDRESS_ID": 82316, "Y": 139343.04, "X": 400592.19, "DIFFX": 0, "DIFFY": 0 }, "geometry": { "type": "Point", "coordinates": [ -76.99317329997865, 38.921967571992596 ] } },
{ "type": "Feature", "properties": { "OBJECTID": 46, "NAME": "Bank of America - Van Ness", "ADDRESS": "4201 CONNECTICUT AVENUE NW", "ZIPCODE": "20008", "ADDRESS_ID": 220631, "Y": 141732.62, "X": 394570.14, "DIFFX": 0, "DIFFY": 0 }, "geometry": { "type": "Point", "coordinates": [ -77.06263695166281, 38.943477056399473 ] } },
{ "type": "Feature", "properties": { "OBJECTID": 47, "NAME": "Bank of America - Vermont Avenue", "ADDRESS": "1090 VERMONT AVENUE NW", "ZIPCODE": "20005", "ADDRESS_ID": 240259, "Y": 137285.45, "X": 397081.2, "DIFFX": 0, "DIFFY": 0 }, "geometry": { "type": "Point", "coordinates": [ -77.033652397374013, 38.903427454583834 ] } },
{ "type": "Feature", "properties": { "OBJECTID": 48, "NAME": "Bank of America - Waterfront", "ADDRESS": "55 M STREET SE", "ZIPCODE": "20003", "ADDRESS_ID": 306664, "Y": 134269.52, "X": 399393.47, "DIFFX": 0, "DIFFY": 0 }, "geometry": { "type": "Point", "coordinates": [ -77.006992152444852, 38.87626345969587 ] } },
{ "type": "Feature", "properties": { "OBJECTID": 49, "NAME": "Bank of Georgetown - Connecticut Avenue Branch", "ADDRESS": "1101 CONNECTICUT AVENUE NW", "ZIPCODE": "20036", "ADDRESS_ID": 241795, "Y": 137353.65, "X": 396553.43, "DIFFX": 0, "DIFFY": 0 }, "geometry": { "type": "Point", "coordinates": [ -77.039737266984716, 38.904039913106367 ] } },
{ "type": "Feature", "properties": { "OBJECTID": 50, "NAME": "Bank of Georgetown - Franklin Square Branch", "ADDRESS": "1350 I STREET NW", "ZIPCODE": "20005", "ADDRESS_ID": 240651, "Y": 137019.84, "X": 397285.16, "DIFFX": 0, "DIFFY": 0 }, "geometry": { "type": "Point", "coordinates": [ -77.031299943862123, 38.901035398798577 ] } },
{ "type": "Feature", "properties": { "OBJECTID": 51, "NAME": "Bank of Georgetown - Georgetown Branch", "ADDRESS": "1001 WISCONSIN AVENUE NW", "ZIPCODE": "20007", "ADDRESS_ID": 295206, "Y": 137214.78, "X": 394582.94, "DIFFX": 0, "DIFFY": 0 }, "geometry": { "type": "Point", "coordinates": [ -77.062453646421957, 38.902778987251672 ] } },
{ "type": "Feature", "properties": { "OBJECTID": 52, "NAME": "Bank of Georgetown - Penn Quarter Branch", "ADDRESS": "822 E STREET NW", "ZIPCODE": "20004", "ADDRESS_ID": 301061, "Y": 136461.09, "X": 397971.06, "DIFFX": 0, "DIFFY": 0 }, "geometry": { "type": "Point", "coordinates": [ -77.023390989619557, 38.896003827384696 ] } },
{ "type": "Feature", "properties": { "OBJECTID": 53, "NAME": "Bank of Georgetown - U Street Ellington Plaza Branch", "ADDRESS": "1301 U STREET NW", "ZIPCODE": "20009", "ADDRESS_ID": 297578, "Y": 138816.18, "X": 397341.04, "DIFFX": 0, "DIFFY": 0 }, "geometry": { "type": "Point", "coordinates": [ -77.03066269532367, 38.917217619934149 ] } },
{ "type": "Feature", "properties": { "OBJECTID": 54, "NAME": "BB&T - Adams Morgan", "ADDRESS": "1801 ADAMS MILL ROAD NW", "ZIPCODE": "20009", "ADDRESS_ID": 218493, "Y": 139465.82, "X": 396319.49, "DIFFX": 0, "DIFFY": 0 }, "geometry": { "type": "Point", "coordinates": [ -77.04244564819227, 38.923066104082373 ] } },
{ "type": "Feature", "properties": { "OBJECTID": 55, "NAME": "BB&T - Capitol Hill", "ADDRESS": "317 PENNSYLVANIA AVENUE SE", "ZIPCODE": "20003", "ADDRESS_ID": 278338, "Y": 135409.99, "X": 399873.83, "DIFFX": 0, "DIFFY": 0 }, "geometry": { "type": "Point", "coordinates": [ -77.001456520651871, 38.88653745836227 ] } },
{ "type": "Feature", "properties": { "OBJECTID": 56, "NAME": "BB&T - Connecticut Avenue", "ADDRESS": "1730 RHODE ISLAND AVENUE NW", "ZIPCODE": "20036", "ADDRESS_ID": 241782, "Y": 137565.32, "X": 396563.6, "DIFFX": 0, "DIFFY": 0 }, "geometry": { "type": "Point", "coordinates": [ -77.039621077810878, 38.905946750659872 ] } },
{ "type": "Feature", "properties": { "OBJECTID": 57, "NAME": "BB&T - Farragut Square", "ADDRESS": "815 CONNECTICUT AVENUE NW", "ZIPCODE": "20006", "ADDRESS_ID": 218768, "Y": 137012.68, "X": 396705.73, "DIFFX": 0, "DIFFY": 0 }, "geometry": { "type": "Point", "coordinates": [ -77.037979788029659, 38.900968918191523 ] } },
{ "type": "Feature", "properties": { "OBJECTID": 58, "NAME": "BB&T - Friendship Heights", "ADDRESS": "5200 WISCONSIN AVENUE NW", "ZIPCODE": "20015", "ADDRESS_ID": 265898, "Y": 143263.22, "X": 392694.32, "DIFFX": 0, "DIFFY": 0 }, "geometry": { "type": "Point", "coordinates": [ -77.084291252587761, 38.957251519646512 ] } },
{ "type": "Feature", "properties": { "OBJECTID": 59, "NAME": "BB&T - Gallery Place", "ADDRESS": "614 H STREET NW", "ZIPCODE": "20001", "ADDRESS_ID": 295092, "Y": 136855.31, "X": 398200.93, "DIFFX": 0, "DIFFY": 0 }, "geometry": { "type": "Point", "coordinates": [ -77.020742184568064, 38.899555605081488 ] } },
{ "type": "Feature", "properties": { "OBJECTID": 60, "NAME": "BB&T - Georgetown", "ADDRESS": "1365 WISCONSIN AVENUE NW", "ZIPCODE": "20007", "ADDRESS_ID": 223699, "Y": 137827.06, "X": 394487.4, "DIFFX": 0, "DIFFY": 0 }, "geometry": { "type": "Point", "coordinates": [ -77.063560007679882, 38.908294025239684 ] } },
{ "type": "Feature", "properties": { "OBJECTID": 61, "NAME": "BB&T - H Street", "ADDRESS": "360 H STREET NE", "ZIPCODE": "20002", "ADDRESS_ID": 308512, "Y": 136944.69, "X": 399917.14, "DIFFX": 0, "DIFFY": 0 }, "geometry": { "type": "Point", "coordinates": [ -77.000957514666794, 38.900362610164649 ] } },
{ "type": "Feature", "properties": { "OBJECTID": 62, "NAME": "BB&T - K Street Main", "ADDRESS": "1909 K STREET NW", "ZIPCODE": "20006", "ADDRESS_ID": 243209, "Y": 137218.12, "X": 396176.13, "DIFFX": 0, "DIFFY": 0 }, "geometry": { "type": "Point", "coordinates": [ -77.044086346239169, 38.902817450379708 ] } },
{ "type": "Feature", "properties": { "OBJECTID": 63, "NAME": "BB&T - Kenyon Square", "ADDRESS": "3101 14TH STREET NW", "ZIPCODE": "20010", "ADDRESS_ID": 294813, "Y": 140110.44, "X": 397188.26, "DIFFX": 0, "DIFFY": 0 }, "geometry": { "type": "Point", "coordinates": [ -77.032429700113283, 38.928876254909824 ] } },
{ "type": "Feature", "properties": { "OBJECTID": 64, "NAME": "BB&T - Metro Center", "ADDRESS": "601 13TH STREET NW", "ZIPCODE": "20005", "ADDRESS_ID": 240933, "Y": 136666.02, "X": 397461.75, "DIFFX": 0, "DIFFY": 0 }, "geometry": { "type": "Point", "coordinates": [ -77.029262842814219, 38.897848588334263 ] } },
{ "type": "Feature", "properties": { "OBJECTID": 65, "NAME": "BB&T - New York Avenue", "ADDRESS": "1099 NEW YORK AVENUE NW", "ZIPCODE": "20001", "ADDRESS_ID": 306169, "Y": 137078.7, "X": 397684.65, "DIFFX": 0, "DIFFY": 0 }, "geometry": { "type": "Point", "coordinates": [ -77.026694676962592, 38.901566773940104 ] } },
{ "type": "Feature", "properties": { "OBJECTID": 66, "NAME": "Capital Bank", "ADDRESS": "1776 I STREET NW", "ZIPCODE": "20006", "ADDRESS_ID": 218481, "Y": 137027.16, "X": 396412.08, "DIFFX": 0, "DIFFY": 0 }, "geometry": { "type": "Point", "coordinates": [ -77.041365163820018, 38.901098209546674 ] } },
{ "type": "Feature", "properties": { "OBJECTID": 67, "NAME": "Capital One Bank - 1700 K Street", "ADDRESS": "1700 K STREET NW", "ZIPCODE": "20006", "ADDRESS_ID": 243334, "Y": 137147.58, "X": 396544.82, "DIFFX": 0, "DIFFY": 0 }, "geometry": { "type": "Point", "coordinates": [ -77.039835493599526, 38.902183527708949 ] } },
{ "type": "Feature", "properties": { "OBJECTID": 68, "NAME": "Capital One Bank - 17th and L", "ADDRESS": "1100 17TH STREET NW", "ZIPCODE": "20036", "ADDRESS_ID": 241793, "Y": 137355.39, "X": 396627.14, "DIFFX": 0, "DIFFY": 0 }, "geometry": { "type": "Point", "coordinates": [ -77.038887484215238, 38.904055873602118 ] } },
{ "type": "Feature", "properties": { "OBJECTID": 69, "NAME": "Capital One Bank - 18th and M", "ADDRESS": "1800 M STREET NW", "ZIPCODE": "20036", "ADDRESS_ID": 241302, "Y": 137497.81, "X": 396336.44, "DIFFX": 0, "DIFFY": 0 }, "geometry": { "type": "Point", "coordinates": [ -77.042239680516502, 38.905337679387237 ] } },
{ "type": "Feature", "properties": { "OBJECTID": 70, "NAME": "Capital One Bank - 901 New York Avenue", "ADDRESS": "901 NEW YORK AVENUE NW", "ZIPCODE": "20001", "ADDRESS_ID": 300397, "Y": 137129.35, "X": 397808.53, "DIFFX": 0, "DIFFY": 0 }, "geometry": { "type": "Point", "coordinates": [ -77.025266694460896, 38.902023364849413 ] } },
{ "type": "Feature", "properties": { "OBJECTID": 71, "NAME": "Capital One Bank - American University", "ADDRESS": "4400 MASSACHUSETTS AVENUE NW", "ZIPCODE": "20016", "ADDRESS_ID": 223994, "Y": 141247.38, "X": 392334.76, "DIFFX": 0, "DIFFY": 0 }, "geometry": { "type": "Point", "coordinates": [ -77.088417131287017, 38.939089213908822 ] } },
{ "type": "Feature", "properties": { "OBJECTID": 72, "NAME": "Capital One Bank - Anacostia", "ADDRESS": "2831 ALABAMA AVENUE SE", "ZIPCODE": "20020", "ADDRESS_ID": 278276, "Y": 132310.79, "X": 402814.97, "DIFFX": 0, "DIFFY": 0 }, "geometry": { "type": "Point", "coordinates": [ -76.967569573033842, 38.858614120177116 ] } },
{ "type": "Feature", "properties": { "OBJECTID": 73, "NAME": "Capital One Bank - Capitol Hill", "ADDRESS": "336 PENNSYLVANIA AVENUE SE", "ZIPCODE": "20003", "ADDRESS_ID": 300706, "Y": 135443.99, "X": 399934.18, "DIFFX": 0, "DIFFY": 0 }, "geometry": { "type": "Point", "coordinates": [ -77.000760928623961, 38.8868437499492 ] } },
{ "type": "Feature", "properties": { "OBJECTID": 74, "NAME": "Capital One Bank - Chevy Chase Circle", "ADDRESS": "5714 CONNECTICUT AVENUE NW", "ZIPCODE": "20015", "ADDRESS_ID": 285262, "Y": 144264.5, "X": 393348.75, "DIFFX": 0, "DIFFY": 0 }, "geometry": { "type": "Point", "coordinates": [ -77.076750511386763, 38.966276502154123 ] } },
{ "type": "Feature", "properties": { "OBJECTID": 75, "NAME": "Capital One Bank - Cleveland Park", "ADDRESS": "3519 CONNECTICUT AVENUE NW", "ZIPCODE": "20008", "ADDRESS_ID": 295765, "Y": 140937.28, "X": 394939.4, "DIFFX": 0, "DIFFY": 0 }, "geometry": { "type": "Point", "coordinates": [ -77.058371588586411, 38.936314606385224 ] } },
{ "type": "Feature", "properties": { "OBJECTID": 76, "NAME": "Capital One Bank - Columbia Square\/12th and F Streets", "ADDRESS": "1200 F STREET NW", "ZIPCODE": "20004", "ADDRESS_ID": 300895, "Y": 136593.09, "X": 397534.44, "DIFFX": 0, "DIFFY": 0 }, "geometry": { "type": "Point", "coordinates": [ -77.028424621823419, 38.897191815272414 ] } },
{ "type": "Feature", "properties": { "OBJECTID": 77, "NAME": "PNC Bank, NA - Cathedral", "ADDRESS": "3336 WISCONSIN AVENUE NW", "ZIPCODE": "20016", "ADDRESS_ID": 223125, "Y": 140720.27, "X": 393671.02, "DIFFX": null, "DIFFY": null }, "geometry": { "type": "Point", "coordinates": [ -77.072989982556535, 38.934353889356721 ] } },
{ "type": "Feature", "properties": { "OBJECTID": 78, "NAME": "Capital One Bank - Federal Gateway Plaza", "ADDRESS": "1100 NEW JERSEY AVENUE SE", "ZIPCODE": "20003", "ADDRESS_ID": 285822, "Y": 134346.72, "X": 399657.93, "DIFFX": 0, "DIFFY": 0 }, "geometry": { "type": "Point", "coordinates": [ -77.003944458542705, 38.876959050725112 ] } },
{ "type": "Feature", "properties": { "OBJECTID": 79, "NAME": "Capital One Bank - Georgetown", "ADDRESS": "1545 WISCONSIN AVENUE NW", "ZIPCODE": "20007", "ADDRESS_ID": 223930, "Y": 138038.65, "X": 394396.62, "DIFFX": 0, "DIFFY": 0 }, "geometry": { "type": "Point", "coordinates": [ -77.064608385275903, 38.910199526447336 ] } },
{ "type": "Feature", "properties": { "OBJECTID": 80, "NAME": "Capital One Bank - Market Square", "ADDRESS": "701 PENNSYLVANIA AVENUE NW", "ZIPCODE": "20004", "ADDRESS_ID": 279889, "Y": 136288.13, "X": 398058.52, "DIFFX": 0, "DIFFY": 0 }, "geometry": { "type": "Point", "coordinates": [ -77.022382301289468, 38.894445937652996 ] } },
{ "type": "Feature", "properties": { "OBJECTID": 81, "NAME": "Capital One Bank - McPherson Square", "ADDRESS": "925 15TH STREET NW", "ZIPCODE": "20005", "ADDRESS_ID": 218798, "Y": 137127.69, "X": 397112.33, "DIFFX": 0, "DIFFY": 0 }, "geometry": { "type": "Point", "coordinates": [ -77.033292844091463, 38.902006399284062 ] } },
{ "type": "Feature", "properties": { "OBJECTID": 82, "NAME": "Capital One Bank - Mt Vernon Triangle\/City VISTA", "ADDRESS": "1075 5TH STREET NW", "ZIPCODE": "20001", "ADDRESS_ID": 305164, "Y": 137272.11, "X": 398378.13, "DIFFX": 0, "DIFFY": 0 }, "geometry": { "type": "Point", "coordinates": [ -77.018700385546353, 38.903310633483258 ] } },
{ "type": "Feature", "properties": { "OBJECTID": 83, "NAME": "PNC Bank, NA - Dupont Circle", "ADDRESS": "1913 MASSACHUSETTS AVENUE NW", "ZIPCODE": "20036", "ADDRESS_ID": 300942, "Y": 138040.3, "X": 396159.31, "DIFFX": 0, "DIFFY": 0 }, "geometry": { "type": "Point", "coordinates": [ -77.04428485649683, 38.910223861131755 ] } },
{ "type": "Feature", "properties": { "OBJECTID": 84, "NAME": "PNC Bank, NA - Georgetown F&M", "ADDRESS": "1201 WISCONSIN AVENUE NW", "ZIPCODE": "20007", "ADDRESS_ID": 272025, "Y": 137503.97, "X": 394575.67, "DIFFX": 0, "DIFFY": 0 }, "geometry": { "type": "Point", "coordinates": [ -77.062539743749824, 38.905384067605965 ] } },
{ "type": "Feature", "properties": { "OBJECTID": 85, "NAME": "PNC Bank, NA - Judiciary Square", "ADDRESS": "601 PENNSYLVANIA AVENUE NW", "ZIPCODE": "20004", "ADDRESS_ID": 226088, "Y": 136161.65, "X": 398221.46, "DIFFX": 0, "DIFFY": 0 }, "geometry": { "type": "Point", "coordinates": [ -77.020503715956863, 38.893306903845854 ] } },
{ "type": "Feature", "properties": { "OBJECTID": 86, "NAME": "PNC Bank, NA - National Place", "ADDRESS": "1331 PENNSYLVANIA AVENUE NW", "ZIPCODE": "20004", "ADDRESS_ID": 279081, "Y": 136502.52, "X": 397278.55, "DIFFX": 0, "DIFFY": 0 }, "geometry": { "type": "Point", "coordinates": [ -77.031374096537888, 38.896375172606731 ] } },
{ "type": "Feature", "properties": { "OBJECTID": 87, "NAME": "PNC Bank, NA - Northeast", "ADDRESS": "1348 4TH STREET NE", "ZIPCODE": "20002", "ADDRESS_ID": 286090, "Y": 138024.75, "X": 400101.94, "DIFFX": 0, "DIFFY": 0 }, "geometry": { "type": "Point", "coordinates": [ -76.998826933653234, 38.910092168694156 ] } },
{ "type": "Feature", "properties": { "OBJECTID": 88, "NAME": "PNC Bank, NA - Park Road", "ADDRESS": "3300 14TH STREET NW", "ZIPCODE": "20010", "ADDRESS_ID": 234465, "Y": 140286.0, "X": 397140.2, "DIFFX": 0, "DIFFY": 0 }, "geometry": { "type": "Point", "coordinates": [ -77.032984701127035, 38.930457598800835 ] } },
{ "type": "Feature", "properties": { "OBJECTID": 89, "NAME": "PNC Bank, NA - PNC Place", "ADDRESS": "800 17TH STREET NW", "ZIPCODE": "20006", "ADDRESS_ID": 218758, "Y": 136959.39, "X": 396552.61, "DIFFX": 0, "DIFFY": 0 }, "geometry": { "type": "Point", "coordinates": [ -77.039744741598398, 38.900488275541697 ] } },
{ "type": "Feature", "properties": { "OBJECTID": 90, "NAME": "PNC Bank, NA - Shepherd Park", "ADDRESS": "7601 GEORGIA AVENUE NW", "ZIPCODE": "20012", "ADDRESS_ID": 253715, "Y": 145975.5, "X": 397723.39, "DIFFX": 0, "DIFFY": 0 }, "geometry": { "type": "Point", "coordinates": [ -77.026277591146481, 38.981711826253957 ] } },
{ "type": "Feature", "properties": { "OBJECTID": 91, "NAME": "PNC Bank, NA - Southeast", "ADDRESS": "4100 SOUTH CAPITOL STREET SE", "ZIPCODE": "20032", "ADDRESS_ID": 27051, "Y": 129128.97, "X": 399361.01, "DIFFX": 0, "DIFFY": 0 }, "geometry": { "type": "Point", "coordinates": [ -77.007361454639977, 38.829955138207396 ] } },
{ "type": "Feature", "properties": { "OBJECTID": 92, "NAME": "PNC Bank, NA - Spring Valley", "ADDRESS": "4835 MASSACHUSETTS AVENUE NW", "ZIPCODE": "20016", "ADDRESS_ID": 269570, "Y": 141937.02, "X": 391721.85, "DIFFX": 0, "DIFFY": 0 }, "geometry": { "type": "Point", "coordinates": [ -77.095495068867777, 38.945296125945696 ] } },
{ "type": "Feature", "properties": { "OBJECTID": 93, "NAME": "PNC Bank, NA - West End", "ADDRESS": "1100 25TH STREET NW", "ZIPCODE": "20037", "ADDRESS_ID": 274069, "Y": 137351.13, "X": 395358.26, "DIFFX": 0, "DIFFY": 0 }, "geometry": { "type": "Point", "coordinates": [ -77.053516181002777, 38.904011712685353 ] } },
{ "type": "Feature", "properties": { "OBJECTID": 94, "NAME": "PNC Bank, NA - Friendship", "ADDRESS": "4249 WISCONSIN AVENUE NW", "ZIPCODE": "20016", "ADDRESS_ID": 303170, "Y": 141860.64, "X": 393279.04, "DIFFX": 0, "DIFFY": 0 }, "geometry": { "type": "Point", "coordinates": [ -77.077531976378268, 38.944620237518492 ] } },
{ "type": "Feature", "properties": { "OBJECTID": 95, "NAME": "Premier Bank - Corporate and Lending Offices", "ADDRESS": "1130 CONNECTICUT AVENUE NW", "ZIPCODE": "20036", "ADDRESS_ID": 241787, "Y": 137421.29, "X": 396432.54, "DIFFX": 0, "DIFFY": 0 }, "geometry": { "type": "Point", "coordinates": [ -77.041131340661053, 38.904648755678132 ] } },
{ "type": "Feature", "properties": { "OBJECTID": 96, "NAME": "Premier Bank - Dupont Circle Office", "ADDRESS": "1604 17TH STREET NW", "ZIPCODE": "20009", "ADDRESS_ID": 241674, "Y": 138169.92, "X": 396639.9, "DIFFX": 0, "DIFFY": 0 }, "geometry": { "type": "Point", "coordinates": [ -77.038744361831178, 38.91139349130237 ] } },
{ "type": "Feature", "properties": { "OBJECTID": 97, "NAME": "Premier Bank - K Street Office", "ADDRESS": "1501 K STREET NW", "ZIPCODE": "20005", "ADDRESS_ID": 279201, "Y": 137233.59, "X": 396953.84, "DIFFX": 0, "DIFFY": 0 }, "geometry": { "type": "Point", "coordinates": [ -77.035120468720422, 38.902959849129196 ] } },
{ "type": "Feature", "properties": { "OBJECTID": 98, "NAME": "Presidential Bank, FSB", "ADDRESS": "1660 K STREET NW", "ZIPCODE": "20006", "ADDRESS_ID": 279290, "Y": 137148.86, "X": 396720.23, "DIFFX": 0, "DIFFY": 0 }, "geometry": { "type": "Point", "coordinates": [ -77.037813277271567, 38.902195730469927 ] } },
{ "type": "Feature", "properties": { "OBJECTID": 99, "NAME": "SunTrust Bank - 100 M Street", "ADDRESS": "100 M STREET SE", "ZIPCODE": "20003", "ADDRESS_ID": 76100, "Y": 134324.62, "X": 399536.61, "DIFFX": 0, "DIFFY": 0 }, "geometry": { "type": "Point", "coordinates": [ -77.005342592668569, 38.876759909537412 ] } },
{ "type": "Feature", "properties": { "OBJECTID": 100, "NAME": "SunTrust Bank - 1275 K Street", "ADDRESS": "1275 K STREET NW", "ZIPCODE": "20005", "ADDRESS_ID": 243281, "Y": 137226.28, "X": 397471.6, "DIFFX": 0, "DIFFY": 0 }, "geometry": { "type": "Point", "coordinates": [ -77.029151356104379, 38.902895640066646 ] } },
{ "type": "Feature", "properties": { "OBJECTID": 101, "NAME": "SunTrust Bank - Adams Morgan", "ADDRESS": "1800 COLUMBIA ROAD NW", "ZIPCODE": "20009", "ADDRESS_ID": 235413, "Y": 139366.05, "X": 396282.89, "DIFFX": 0, "DIFFY": 0 }, "geometry": { "type": "Point", "coordinates": [ -77.042867176269695, 38.922167189716177 ] } },
{ "type": "Feature", "properties": { "OBJECTID": 102, "NAME": "SunTrust Bank - Anacostia", "ADDRESS": "1340 GOOD HOPE ROAD SE", "ZIPCODE": "20020", "ADDRESS_ID": 66569, "Y": 133257.67, "X": 401242.3, "DIFFX": 0, "DIFFY": 0 }, "geometry": { "type": "Point", "coordinates": [ -76.985687397154521, 38.86714763780035 ] } },
{ "type": "Feature", "properties": { "OBJECTID": 103, "NAME": "SunTrust Bank - Capitol Hill", "ADDRESS": "300 PENNSYLVANIA AVENUE SE", "ZIPCODE": "20003", "ADDRESS_ID": 278302, "Y": 135494.96, "X": 399843.78, "DIFFX": 0, "DIFFY": 0 }, "geometry": { "type": "Point", "coordinates": [ -77.001802896915024, 38.887302895670672 ] } },
{ "type": "Feature", "properties": { "OBJECTID": 104, "NAME": "SunTrust Bank - Cathedral", "ADDRESS": "3402 WISCONSIN AVENUE NW", "ZIPCODE": "20016", "ADDRESS_ID": 311540, "Y": 140601.06, "X": 393695.73, "DIFFX": 0, "DIFFY": 0 }, "geometry": { "type": "Point", "coordinates": [ -77.072848556911751, 38.934833723019054 ] } },
{ "type": "Feature", "properties": { "OBJECTID": 105, "NAME": "SunTrust Bank - Connecticut and M", "ADDRESS": "1150 CONNECTICUT AVENUE NW", "ZIPCODE": "20036", "ADDRESS_ID": 241786, "Y": 137495.99, "X": 396416.78, "DIFFX": 0, "DIFFY": 0 }, "geometry": { "type": "Point", "coordinates": [ -77.041313426607886, 38.905321615407836 ] } },
{ "type": "Feature", "properties": { "OBJECTID": 106, "NAME": "SunTrust Bank - Connecticut and Nebraska", "ADDRESS": "5000 CONNECTICUT AVENUE NW", "ZIPCODE": "20008", "ADDRESS_ID": 285038, "Y": 143006.75, "X": 393914.75, "DIFFX": 0, "DIFFY": 0 }, "geometry": { "type": "Point", "coordinates": [ -77.070208324815269, 38.95495047413548 ] } },
{ "type": "Feature", "properties": { "OBJECTID": 107, "NAME": "SunTrust Bank - Dupont Circle", "ADDRESS": "1369 CONNECTICUT AVENUE NW", "ZIPCODE": "20036", "ADDRESS_ID": 241264, "Y": 137913.78, "X": 396286.18, "DIFFX": 0, "DIFFY": 0 }, "geometry": { "type": "Point", "coordinates": [ -77.042821380582836, 38.909084670794329 ] } },
{ "type": "Feature", "properties": { "OBJECTID": 108, "NAME": "SunTrust Bank - Fifteenth and New York", "ADDRESS": "1445 NEW YORK AVENUE NW", "ZIPCODE": "20005", "ADDRESS_ID": 218285, "Y": 136833.9, "X": 397144.19, "DIFFX": 0, "DIFFY": 0 }, "geometry": { "type": "Point", "coordinates": [ -77.032924323859632, 38.89935993771018 ] } },
{ "type": "Feature", "properties": { "OBJECTID": 109, "NAME": "SunTrust Bank - Foxhall Square", "ADDRESS": "3301 NEW MEXICO AVENUE NW", "ZIPCODE": "20016", "ADDRESS_ID": 223997, "Y": 140643.14, "X": 392614.49, "DIFFX": 0, "DIFFY": 0 }, "geometry": { "type": "Point", "coordinates": [ -77.085184078882477, 38.933648437367026 ] } },
{ "type": "Feature", "properties": { "OBJECTID": 110, "NAME": "SunTrust Bank - Georgetown", "ADDRESS": "2929 M STREET NW", "ZIPCODE": "20007", "ADDRESS_ID": 272083, "Y": 137507.74, "X": 394886.57, "DIFFX": 0, "DIFFY": 0 }, "geometry": { "type": "Point", "coordinates": [ -77.058955386153627, 38.90541989285898 ] } },
{ "type": "Feature", "properties": { "OBJECTID": 111, "NAME": "SunTrust Bank - Georgetown Safeway", "ADDRESS": "1855 WISCONSIN AVENUE NW", "ZIPCODE": "20007", "ADDRESS_ID": 224665, "Y": 138696.71, "X": 394141.03, "DIFFX": 0, "DIFFY": 0 }, "geometry": { "type": "Point", "coordinates": [ -77.067560912637333, 38.916125885522419 ] } },
{ "type": "Feature", "properties": { "OBJECTID": 112, "NAME": "SunTrust Bank - Hechinger Mall Safeway", "ADDRESS": "1601 MARYLAND AVENUE NE", "ZIPCODE": "20002", "ADDRESS_ID": 297814, "Y": 136968.47, "X": 401754.81, "DIFFX": 0, "DIFFY": 0 }, "geometry": { "type": "Point", "coordinates": [ -76.97977232815262, 38.900575082090768 ] } },
{ "type": "Feature", "properties": { "OBJECTID": 113, "NAME": "SunTrust Bank - Lenfant Plaza", "ADDRESS": "965 L'ENFANT PLAZA SW", "ZIPCODE": "20024", "ADDRESS_ID": 304542, "Y": 135178.37, "X": 397821.09, "DIFFX": 0, "DIFFY": 0 }, "geometry": { "type": "Point", "coordinates": [ -77.025115707641135, 38.884448244879522 ] } },
{ "type": "Feature", "properties": { "OBJECTID": 114, "NAME": "SunTrust Bank - Metro Center", "ADDRESS": "1100 G STREET NW", "ZIPCODE": "20005", "ADDRESS_ID": 303213, "Y": 136699.25, "X": 397631.97, "DIFFX": 0, "DIFFY": 0 }, "geometry": { "type": "Point", "coordinates": [ -77.027300687270554, 38.898148411332542 ] } },
{ "type": "Feature", "properties": { "OBJECTID": 115, "NAME": "SunTrust Bank - Nineteenth and K", "ADDRESS": "1020 19TH STREET NW", "ZIPCODE": "20036", "ADDRESS_ID": 242546, "Y": 137258.73, "X": 396200.06, "DIFFX": 0, "DIFFY": 0 }, "geometry": { "type": "Point", "coordinates": [ -77.043810690360601, 38.903183383437181 ] } },
{ "type": "Feature", "properties": { "OBJECTID": 116, "NAME": "SunTrust Bank - Rhode Island Avenue", "ADDRESS": "410 RHODE ISLAND AVENUE NE", "ZIPCODE": "20002", "ADDRESS_ID": 288105, "Y": 139152.52, "X": 400000.06, "DIFFX": 0, "DIFFY": 0 }, "geometry": { "type": "Point", "coordinates": [ -77.00000159288561, 38.920251505073686 ] } },
{ "type": "Feature", "properties": { "OBJECTID": 117, "NAME": "Suntrust Bank - Seventeeth and Eye", "ADDRESS": "900 17TH STREET NW", "ZIPCODE": "20006", "ADDRESS_ID": 279977, "Y": 137084.41, "X": 396545.09, "DIFFX": 0, "DIFFY": 0 }, "geometry": { "type": "Point", "coordinates": [ -77.039832063113167, 38.901614470898707 ] } },
{ "type": "Feature", "properties": { "OBJECTID": 118, "NAME": "SunTrust Bank - Thirteenth and U", "ADDRESS": "1250 U STREET NW", "ZIPCODE": "20009", "ADDRESS_ID": 297746, "Y": 138760.45, "X": 397481.94, "DIFFX": 0, "DIFFY": 0 }, "geometry": { "type": "Point", "coordinates": [ -77.029037776133478, 38.916716000655455 ] } },
{ "type": "Feature", "properties": { "OBJECTID": 119, "NAME": "SunTrust Bank - Twenty-third and M", "ADDRESS": "2250 M STREET NW", "ZIPCODE": "20037", "ADDRESS_ID": 303499, "Y": 137472.72, "X": 395691.34, "DIFFX": 0, "DIFFY": 0 }, "geometry": { "type": "Point", "coordinates": [ -77.049676917219969, 38.905108734101432 ] } },
{ "type": "Feature", "properties": { "OBJECTID": 120, "NAME": "SunTrust Bank - Two Mass Avenue", "ADDRESS": "2 MASSACHUSETTS AVENUE NW", "ZIPCODE": "20001", "ADDRESS_ID": 237154, "Y": 136631.65, "X": 399143.5, "DIFFX": 0, "DIFFY": 0 }, "geometry": { "type": "Point", "coordinates": [ -77.009875842383238, 38.897542218848955 ] } },
{ "type": "Feature", "properties": { "OBJECTID": 121, "NAME": "TD Bank, NA", "ADDRESS": "901 7TH STREET NW", "ZIPCODE": "20001", "ADDRESS_ID": 279981, "Y": 137023.51, "X": 398127.16, "DIFFX": 0, "DIFFY": 0 }, "geometry": { "type": "Point", "coordinates": [ -77.021593072899535, 38.901070657049395 ] } },
{ "type": "Feature", "properties": { "OBJECTID": 122, "NAME": "TD Bank, NA", "ADDRESS": "1275 1ST STREET NE", "ZIPCODE": "20002", "ADDRESS_ID": 303729, "Y": 137678.49, "X": 399526.21, "DIFFX": 0, "DIFFY": 0 }, "geometry": { "type": "Point", "coordinates": [ -77.005464761501713, 38.906972816630045 ] } },
{ "type": "Feature", "properties": { "OBJECTID": 123, "NAME": "TD Bank, NA", "ADDRESS": "1489 P STREET NW", "ZIPCODE": "20005", "ADDRESS_ID": 308302, "Y": 137995.09, "X": 397025.41, "DIFFX": 0, "DIFFY": 0 }, "geometry": { "type": "Point", "coordinates": [ -77.03429866026643, 38.909819952250423 ] } },
{ "type": "Feature", "properties": { "OBJECTID": 124, "NAME": "TD Bank, NA", "ADDRESS": "1030 15TH STREET NW", "ZIPCODE": "20005", "ADDRESS_ID": 278796, "Y": 137284.63, "X": 396967.0, "DIFFX": 0, "DIFFY": 0 }, "geometry": { "type": "Point", "coordinates": [ -77.034968976802858, 38.903419681054061 ] } },
{ "type": "Feature", "properties": { "OBJECTID": 125, "NAME": "TD Bank, NA", "ADDRESS": "605 14TH STREET NW", "ZIPCODE": "20005", "ADDRESS_ID": 279848, "Y": 136644.45, "X": 397251.04, "DIFFX": 0, "DIFFY": 0 }, "geometry": { "type": "Point", "coordinates": [ -77.031691789084846, 38.897653644180863 ] } },
{ "type": "Feature", "properties": { "OBJECTID": 126, "NAME": "TD Bank, NA", "ADDRESS": "801 17TH STREET NW", "ZIPCODE": "20006", "ADDRESS_ID": 218760, "Y": 136964.81, "X": 396607.06, "DIFFX": 0, "DIFFY": 0 }, "geometry": { "type": "Point", "coordinates": [ -77.039117053907859, 38.900537312723941 ] } },
{ "type": "Feature", "properties": { "OBJECTID": 127, "NAME": "TD Bank, NA", "ADDRESS": "905 RHODE ISLAND AVENUE NE", "ZIPCODE": "20018", "ADDRESS_ID": 308598, "Y": 139247.85, "X": 400621.04, "DIFFX": 0, "DIFFY": 0 }, "geometry": { "type": "Point", "coordinates": [ -76.992840695159131, 38.921110049644909 ] } },
{ "type": "Feature", "properties": { "OBJECTID": 128, "NAME": "TD Bank, NA", "ADDRESS": "1753 CONNECTICUT AVENUE NW", "ZIPCODE": "20009", "ADDRESS_ID": 300676, "Y": 138454.31, "X": 396043.85, "DIFFX": 0, "DIFFY": 0 }, "geometry": { "type": "Point", "coordinates": [ -77.045618478037383, 38.913952891581914 ] } },
{ "type": "Feature", "properties": { "OBJECTID": 129, "NAME": "TD Bank, NA", "ADDRESS": "1200 NEW HAMPSHIRE AVENUE NW", "ZIPCODE": "20036", "ADDRESS_ID": 242474, "Y": 137550.87, "X": 395867.08, "DIFFX": 0, "DIFFY": 0 }, "geometry": { "type": "Point", "coordinates": [ -77.047651277699742, 38.905813580636362 ] } },
{ "type": "Feature", "properties": { "OBJECTID": 130, "NAME": "TD Bank, NA", "ADDRESS": "1611 WISCONSIN AVENUE NW", "ZIPCODE": "20007", "ADDRESS_ID": 272964, "Y": 138121.94, "X": 394371.96, "DIFFX": 0, "DIFFY": 0 }, "geometry": { "type": "Point", "coordinates": [ -77.064893393825926, 38.910949673580667 ] } },
{ "type": "Feature", "properties": { "OBJECTID": 131, "NAME": "TD Bank, NA", "ADDRESS": "4849 WISCONSIN AVENUE NW", "ZIPCODE": "20016", "ADDRESS_ID": 284993, "Y": 142780.92, "X": 392947.84, "DIFFX": 0, "DIFFY": 0 }, "geometry": { "type": "Point", "coordinates": [ -77.08136131865524, 38.952908906263403 ] } },
{ "type": "Feature", "properties": { "OBJECTID": 132, "NAME": "United Bank - G Street", "ADDRESS": "1001 G STREET NW", "ZIPCODE": "20001", "ADDRESS_ID": 239369, "Y": 136762.57, "X": 397702.51, "DIFFX": 0, "DIFFY": 0 }, "geometry": { "type": "Point", "coordinates": [ -77.026487721338071, 38.89871900806348 ] } },
{ "type": "Feature", "properties": { "OBJECTID": 133, "NAME": "United Bank - International Square", "ADDRESS": "1875 I STREET NW", "ZIPCODE": "20006", "ADDRESS_ID": 279443, "Y": 137075.69, "X": 396281.88, "DIFFX": 0, "DIFFY": 0 }, "geometry": { "type": "Point", "coordinates": [ -77.04286642049793, 38.901534843985537 ] } },
{ "type": "Feature", "properties": { "OBJECTID": 134, "NAME": "United Bank - K Street", "ADDRESS": "1667 K STREET NW", "ZIPCODE": "20006", "ADDRESS_ID": 279291, "Y": 137238.8, "X": 396688.31, "DIFFX": 0, "DIFFY": 0 }, "geometry": { "type": "Point", "coordinates": [ -77.038181702256949, 38.903005822252631 ] } },
{ "type": "Feature", "properties": { "OBJECTID": 135, "NAME": "United Bank - Pennsylvania Avenue", "ADDRESS": "1275 PENNSYLVANIA AVENUE NW", "ZIPCODE": "20004", "ADDRESS_ID": 300418, "Y": 136426.96, "X": 397492.18, "DIFFX": 0, "DIFFY": 0 }, "geometry": { "type": "Point", "coordinates": [ -77.028911177590103, 38.895695135940251 ] } },
{ "type": "Feature", "properties": { "OBJECTID": 136, "NAME": "United Bank - Spring Valley", "ADDRESS": "4900 MASSACHUSETTS AVENUE NW", "ZIPCODE": "20016", "ADDRESS_ID": 269772, "Y": 141982.96, "X": 391576.49, "DIFFX": 0, "DIFFY": 0 }, "geometry": { "type": "Point", "coordinates": [ -77.097172435220131, 38.945708584441213 ] } },
{ "type": "Feature", "properties": { "OBJECTID": 137, "NAME": "WashingtonFirst Bank - 19th Street", "ADDRESS": "1146 19TH STREET NW", "ZIPCODE": "20036", "ADDRESS_ID": 241070, "Y": 137474.63, "X": 396197.31, "DIFFX": 0, "DIFFY": 0 }, "geometry": { "type": "Point", "coordinates": [ -77.043843589792544, 38.905128274853368 ] } },
{ "type": "Feature", "properties": { "OBJECTID": 138, "NAME": "WashingtonFirst Bank - Connecticut Avenue", "ADDRESS": "1025 CONNECTICUT AVENUE NW", "ZIPCODE": "20036", "ADDRESS_ID": 241803, "Y": 137273.65, "X": 396587.94, "DIFFX": 0, "DIFFY": 0 }, "geometry": { "type": "Point", "coordinates": [ -77.039339009002745, 38.903319379479143 ] } },
{ "type": "Feature", "properties": { "OBJECTID": 139, "NAME": "Wells Fargo Bank - 13th and I", "ADDRESS": "1300 I STREET NW", "ZIPCODE": "20005", "ADDRESS_ID": 240649, "Y": 137015.98, "X": 397367.56, "DIFFX": 0, "DIFFY": 0 }, "geometry": { "type": "Point", "coordinates": [ -77.030349992049167, 38.9010008771982 ] } },
{ "type": "Feature", "properties": { "OBJECTID": 140, "NAME": "Wells Fargo Bank - 13th and Pennsylvania", "ADDRESS": "1301 PENNSYLVANIA AVENUE NW", "ZIPCODE": "20004", "ADDRESS_ID": 279023, "Y": 136503.48, "X": 397401.6, "DIFFX": 0, "DIFFY": 0 }, "geometry": { "type": "Point", "coordinates": [ -77.029955627909047, 38.896384193013844 ] } },
{ "type": "Feature", "properties": { "OBJECTID": 141, "NAME": "Wells Fargo Bank - 14th and New York", "ADDRESS": "1350 NEW YORK AVENUE NW", "ZIPCODE": "20005", "ADDRESS_ID": 243198, "Y": 136823.69, "X": 397261.09, "DIFFX": 0, "DIFFY": 0 }, "geometry": { "type": "Point", "coordinates": [ -77.03157664930113, 38.899268334402031 ] } },
{ "type": "Feature", "properties": { "OBJECTID": 142, "NAME": "Wells Fargo Bank - 17th and Pennsylvania", "ADDRESS": "1700 PENNSYLVANIA AVENUE NW", "ZIPCODE": "20006", "ADDRESS_ID": 218408, "Y": 136756.11, "X": 396534.03, "DIFFX": 0, "DIFFY": 0 }, "geometry": { "type": "Point", "coordinates": [ -77.039957911097588, 38.898656983025617 ] } },
{ "type": "Feature", "properties": { "OBJECTID": 143, "NAME": "Wells Fargo Bank - 18th and K", "ADDRESS": "1800 K STREET NW", "ZIPCODE": "20006", "ADDRESS_ID": 300930, "Y": 137153.71, "X": 396349.28, "DIFFX": 0, "DIFFY": 0 }, "geometry": { "type": "Point", "coordinates": [ -77.04208981823146, 38.902237958478892 ] } },
{ "type": "Feature", "properties": { "OBJECTID": 144, "NAME": "Wells Fargo Bank - 19th and M", "ADDRESS": "1850 M STREET NW", "ZIPCODE": "20036", "ADDRESS_ID": 241300, "Y": 137501.37, "X": 396274.8, "DIFFX": 0, "DIFFY": 0 }, "geometry": { "type": "Point", "coordinates": [ -77.042950350874676, 38.905369490012966 ] } },
{ "type": "Feature", "properties": { "OBJECTID": 145, "NAME": "Wells Fargo Bank - 20th and L", "ADDRESS": "2000 L STREET NW", "ZIPCODE": "20036", "ADDRESS_ID": 243349, "Y": 137284.56, "X": 396028.64, "DIFFX": 0, "DIFFY": 0 }, "geometry": { "type": "Point", "coordinates": [ -77.045787090886265, 38.903415311376563 ] } },
{ "type": "Feature", "properties": { "OBJECTID": 146, "NAME": "Wells Fargo Bank - Adams Morgan", "ADDRESS": "1804 ADAMS MILL ROAD NW", "ZIPCODE": "20009", "ADDRESS_ID": 243236, "Y": 139449.47, "X": 396272.26, "DIFFX": 0, "DIFFY": 0 }, "geometry": { "type": "Point", "coordinates": [ -77.042990212107838, 38.922918618923475 ] } },
{ "type": "Feature", "properties": { "OBJECTID": 147, "NAME": "Wells Fargo Bank - Capital Gallery", "ADDRESS": "600 MARYLAND AVENUE SW", "ZIPCODE": "20024", "ADDRESS_ID": 5831, "Y": 135347.16, "X": 398172.72, "DIFFX": 0, "DIFFY": 0 }, "geometry": { "type": "Point", "coordinates": [ -77.021063380948718, 38.885969571197613 ] } },
{ "type": "Feature", "properties": { "OBJECTID": 148, "NAME": "Wells Fargo Bank - Capitol Hill", "ADDRESS": "215 PENNSYLVANIA AVENUE SE", "ZIPCODE": "20003", "ADDRESS_ID": 278073, "Y": 135472.08, "X": 399751.89, "DIFFX": 0, "DIFFY": 0 }, "geometry": { "type": "Point", "coordinates": [ -77.002862025975389, 38.887096762750922 ] } },
{ "type": "Feature", "properties": { "OBJECTID": 149, "NAME": "Wells Fargo Bank - Columbia Plaza offsite", "ADDRESS": "502 23RD STREET NW", "ZIPCODE": "20037", "ADDRESS_ID": 298794, "Y": 136520.55, "X": 395604.9, "DIFFX": 0, "DIFFY": 0 }, "geometry": { "type": "Point", "coordinates": [ -77.050667392545407, 38.896530818264154 ] } },
{ "type": "Feature", "properties": { "OBJECTID": 150, "NAME": "Wells Fargo Bank - Connecticut and L", "ADDRESS": "1100 CONNECTICUT AVENUE NW", "ZIPCODE": "20036", "ADDRESS_ID": 243303, "Y": 137358.15, "X": 396475.11, "DIFFX": 0, "DIFFY": 0 }, "geometry": { "type": "Point", "coordinates": [ -77.040640229374546, 38.904080140074633 ] } },
{ "type": "Feature", "properties": { "OBJECTID": 151, "NAME": "Wells Fargo Bank - Connecticut and N", "ADDRESS": "1300 CONNECTICUT AVENUE NW", "ZIPCODE": "20036", "ADDRESS_ID": 218073, "Y": 137739.93, "X": 396298.92, "DIFFX": 0, "DIFFY": 0 }, "geometry": { "type": "Point", "coordinates": [ -77.042673555652428, 38.907518623618223 ] } },
{ "type": "Feature", "properties": { "OBJECTID": 152, "NAME": "Citibank", "ADDRESS": "1000 CONNECTICUT AVENUE NW", "ZIPCODE": "20036", "ADDRESS_ID": 243406, "Y": 137222.77, "X": 396529.97, "DIFFX": null, "DIFFY": null }, "geometry": { "type": "Point", "coordinates": [ -77.040007072429106, 38.902860807444334 ] } },
{ "type": "Feature", "properties": { "OBJECTID": 153, "NAME": "Colombo Bank", "ADDRESS": "1660 L STREET NW", "ZIPCODE": "20036", "ADDRESS_ID": 242035, "Y": 137291.36, "X": 396697.15, "DIFFX": null, "DIFFY": null }, "geometry": { "type": "Point", "coordinates": [ -77.038080041504585, 38.903479334617103 ] } },
{ "type": "Feature", "properties": { "OBJECTID": 154, "NAME": "Citibank - Chevy Chase", "ADDRESS": "5700 CONNECTICUT AVENUE NW", "ZIPCODE": "20015", "ADDRESS_ID": 274635, "Y": 144249.55, "X": 393358.8, "DIFFX": 0, "DIFFY": 0 }, "geometry": { "type": "Point", "coordinates": [ -77.076634400503323, 38.966141904962008 ] } },
{ "type": "Feature", "properties": { "OBJECTID": 155, "NAME": "Citibank - Columbia Heights", "ADDRESS": "3241 14TH STREET NW", "ZIPCODE": "20010", "ADDRESS_ID": 302794, "Y": 140273.32, "X": 397213.13, "DIFFX": 0, "DIFFY": 0 }, "geometry": { "type": "Point", "coordinates": [ -77.032143539281705, 38.930343607806719 ] } },
{ "type": "Feature", "properties": { "OBJECTID": 156, "NAME": "Citibank - Connecticut and K", "ADDRESS": "1717 K STREET NW", "ZIPCODE": "20006", "ADDRESS_ID": 298465, "Y": 137221.28, "X": 396508.66, "DIFFX": 0, "DIFFY": 0 }, "geometry": { "type": "Point", "coordinates": [ -77.040252740522149, 38.902847300603284 ] } },
{ "type": "Feature", "properties": { "OBJECTID": 157, "NAME": "Citibank - Dupont Circle", "ADDRESS": "1225 CONNECTICUT AVENUE NW", "ZIPCODE": "20036", "ADDRESS_ID": 241767, "Y": 137672.55, "X": 396405.76, "DIFFX": 0, "DIFFY": 0 }, "geometry": { "type": "Point", "coordinates": [ -77.041441400898591, 38.906912084587823 ] } },
{ "type": "Feature", "properties": { "OBJECTID": 158, "NAME": "Citibank - East River Park", "ADDRESS": "3917 MINNESOTA AVENUE NE", "ZIPCODE": "20019", "ADDRESS_ID": 29135, "Y": 136219.83, "X": 404363.02, "DIFFX": 0, "DIFFY": 0 }, "geometry": { "type": "Point", "coordinates": [ -76.949708890237844, 38.893821985801807 ] } },
{ "type": "Feature", "properties": { "OBJECTID": 159, "NAME": "Citibank - Farragut West", "ADDRESS": "1775 PENNSYLVANIA AVENUE NW", "ZIPCODE": "20006", "ADDRESS_ID": 279383, "Y": 136891.64, "X": 396412.01, "DIFFX": 0, "DIFFY": 0 }, "geometry": { "type": "Point", "coordinates": [ -77.041365262839449, 38.899877396506184 ] } },
{ "type": "Feature", "properties": { "OBJECTID": 160, "NAME": "Citibank - Foggy Bottom", "ADDRESS": "2221 I STREET NW", "ZIPCODE": "20037", "ADDRESS_ID": 307441, "Y": 137014.65, "X": 395695.79, "DIFFX": 0, "DIFFY": 0 }, "geometry": { "type": "Point", "coordinates": [ -77.049622742258165, 38.900982299173663 ] } },
{ "type": "Feature", "properties": { "OBJECTID": 161, "NAME": "Citibank - Friendship Heights", "ADDRESS": "5001 WISCONSIN AVENUE NW", "ZIPCODE": "20016", "ADDRESS_ID": 266053, "Y": 143008.32, "X": 392854.12, "DIFFX": 0, "DIFFY": 0 }, "geometry": { "type": "Point", "coordinates": [ -77.082444911981938, 38.954956628397532 ] } },
{ "type": "Feature", "properties": { "OBJECTID": 162, "NAME": "Citibank - Georgetown North", "ADDRESS": "1901 WISCONSIN AVENUE NW", "ZIPCODE": "20007", "ADDRESS_ID": 279450, "Y": 138721.09, "X": 394118.24, "DIFFX": 0, "DIFFY": 0 }, "geometry": { "type": "Point", "coordinates": [ -77.067823908406865, 38.916345356399511 ] } },
{ "type": "Feature", "properties": { "OBJECTID": 163, "NAME": "Citibank - McPherson Square", "ADDRESS": "1000 VERMONT AVENUE NW", "ZIPCODE": "20005", "ADDRESS_ID": 240261, "Y": 137226.36, "X": 397056.36, "DIFFX": 0, "DIFFY": 0 }, "geometry": { "type": "Point", "coordinates": [ -77.033938518202717, 38.902895068067913 ] } },
{ "type": "Feature", "properties": { "OBJECTID": 164, "NAME": "Citibank - Metropolitan Square", "ADDRESS": "1400 G STREET NW", "ZIPCODE": "20005", "ADDRESS_ID": 301002, "Y": 136696.07, "X": 397179.59, "DIFFX": 0, "DIFFY": 0 }, "geometry": { "type": "Point", "coordinates": [ -77.032515663452699, 38.898118429517965 ] } },
{ "type": "Feature", "properties": { "OBJECTID": 165, "NAME": "Citibank - Palisades", "ADDRESS": "5250 MACARTHUR BOULEVARD NW", "ZIPCODE": "20016", "ADDRESS_ID": 285144, "Y": 139906.67, "X": 390969.05, "DIFFX": 0, "DIFFY": 0 }, "geometry": { "type": "Point", "coordinates": [ -77.104152280688069, 38.926998719031587 ] } },
{ "type": "Feature", "properties": { "OBJECTID": 166, "NAME": "Citibank - Rhode Island", "ADDRESS": "1060 BRENTWOOD ROAD NE", "ZIPCODE": "20018", "ADDRESS_ID": 302477, "Y": 139152.47, "X": 400543.6, "DIFFX": 0, "DIFFY": 0 }, "geometry": { "type": "Point", "coordinates": [ -76.993733778332313, 38.920250886762446 ] } },
{ "type": "Feature", "properties": { "OBJECTID": 167, "NAME": "City First Bank of DC, NA", "ADDRESS": "1432 U STREET NW", "ZIPCODE": "20009", "ADDRESS_ID": 279168, "Y": 138769.24, "X": 397109.65, "DIFFX": 0, "DIFFY": 0 }, "geometry": { "type": "Point", "coordinates": [ -77.03333065058851, 38.916794038190559 ] } },
{ "type": "Feature", "properties": { "OBJECTID": 168, "NAME": "EagleBank - Dupont Circle", "ADDRESS": "1228 CONNECTICUT AVENUE NW", "ZIPCODE": "20036", "ADDRESS_ID": 302357, "Y": 137664.31, "X": 396345.47, "DIFFX": 0, "DIFFY": 0 }, "geometry": { "type": "Point", "coordinates": [ -77.042136459211889, 38.906837607166672 ] } },
{ "type": "Feature", "properties": { "OBJECTID": 169, "NAME": "EagleBank - Gallery Place", "ADDRESS": "700 7TH STREET NW", "ZIPCODE": "20001", "ADDRESS_ID": 243354, "Y": 136753.17, "X": 398075.25, "DIFFX": 0, "DIFFY": 0 }, "geometry": { "type": "Point", "coordinates": [ -77.022190752814666, 38.898635224782375 ] } },
{ "type": "Feature", "properties": { "OBJECTID": 170, "NAME": "EagleBank - Georgetown", "ADDRESS": "1044 WISCONSIN AVENUE NW", "ZIPCODE": "20007", "ADDRESS_ID": 278800, "Y": 137327.58, "X": 394538.58, "DIFFX": 0, "DIFFY": 0 }, "geometry": { "type": "Point", "coordinates": [ -77.062965953958468, 38.903794854935107 ] } },
{ "type": "Feature", "properties": { "OBJECTID": 171, "NAME": "EagleBank - K Street", "ADDRESS": "2001 K STREET NW", "ZIPCODE": "20006", "ADDRESS_ID": 242788, "Y": 137237.88, "X": 396074.32, "DIFFX": 0, "DIFFY": 0 }, "geometry": { "type": "Point", "coordinates": [ -77.045260190952902, 38.902995006628906 ] } },
{ "type": "Feature", "properties": { "OBJECTID": 172, "NAME": "EagleBank - McPherson Square", "ADDRESS": "1425 K STREET NW", "ZIPCODE": "20005", "ADDRESS_ID": 240264, "Y": 137228.82, "X": 397131.37, "DIFFX": 0, "DIFFY": 0 }, "geometry": { "type": "Point", "coordinates": [ -77.033073763519596, 38.902917476648632 ] } },
{ "type": "Feature", "properties": { "OBJECTID": 173, "NAME": "First Citizens Bank", "ADDRESS": "1717 PENNSYLVANIA AVENUE NW", "ZIPCODE": "20006", "ADDRESS_ID": 279332, "Y": 136846.4, "X": 396496.29, "DIFFX": 0, "DIFFY": 0 }, "geometry": { "type": "Point", "coordinates": [ -77.040393437534604, 38.899470198304513 ] } },
{ "type": "Feature", "properties": { "OBJECTID": 174, "NAME": "HSBC Bank USA - Georgetown", "ADDRESS": "1715 WISCONSIN AVENUE NW", "ZIPCODE": "20007", "ADDRESS_ID": 261691, "Y": 138489.28, "X": 394218.2, "DIFFX": 0, "DIFFY": 0 }, "geometry": { "type": "Point", "coordinates": [ -77.066669334052591, 38.914257798107741 ] } },
{ "type": "Feature", "properties": { "OBJECTID": 175, "NAME": "HSBC Bank USA - Washington DC", "ADDRESS": "1130 CONNECTICUT AVENUE NW", "ZIPCODE": "20036", "ADDRESS_ID": 241787, "Y": 137421.29, "X": 396432.54, "DIFFX": 0, "DIFFY": 0 }, "geometry": { "type": "Point", "coordinates": [ -77.041131340661053, 38.904648755678132 ] } },
{ "type": "Feature", "properties": { "OBJECTID": 176, "NAME": "Independence Federal Savings Bank - Main Office", "ADDRESS": "1301 9TH STREET NW", "ZIPCODE": "20001", "ADDRESS_ID": 239905, "Y": 137733.72, "X": 397940.87, "DIFFX": 0, "DIFFY": 0 }, "geometry": { "type": "Point", "coordinates": [ -77.023742822190712, 38.90746806275753 ] } },
{ "type": "Feature", "properties": { "OBJECTID": 177, "NAME": "Industrial Bank, NA - Anacostia Gateway", "ADDRESS": "1800 MARTIN LUTHER KING JR AVENUE SE", "ZIPCODE": "20020", "ADDRESS_ID": 56153, "Y": 133299.78, "X": 401034.28, "DIFFX": 0, "DIFFY": 0 }, "geometry": { "type": "Point", "coordinates": [ -76.988084325064932, 38.867527251164681 ] } },
{ "type": "Feature", "properties": { "OBJECTID": 178, "NAME": "Industrial Bank, NA - F Street", "ADDRESS": "1317 F STREET NW", "ZIPCODE": "20004", "ADDRESS_ID": 240661, "Y": 136640.98, "X": 397362.66, "DIFFX": 0, "DIFFY": 0 }, "geometry": { "type": "Point", "coordinates": [ -77.030405041011008, 38.897622727170337 ] } },
{ "type": "Feature", "properties": { "OBJECTID": 179, "NAME": "Industrial Bank, NA - Georgia Avenue", "ADDRESS": "4812 GEORGIA AVENUE NW", "ZIPCODE": "20011", "ADDRESS_ID": 252851, "Y": 142378.5, "X": 397622.94, "DIFFX": 0, "DIFFY": 0 }, "geometry": { "type": "Point", "coordinates": [ -77.027424453773293, 38.949308891324151 ] } },
{ "type": "Feature", "properties": { "OBJECTID": 180, "NAME": "Industrial Bank, NA - J.H. Mitchell", "ADDRESS": "125 45TH STREET NE", "ZIPCODE": "20019", "ADDRESS_ID": 285981, "Y": 135975.24, "X": 405424.83, "DIFFX": 0, "DIFFY": 0 }, "geometry": { "type": "Point", "coordinates": [ -76.937471131323889, 38.891612718115077 ] } },
{ "type": "Feature", "properties": { "OBJECTID": 181, "NAME": "Industrial Bank, NA - Reeves Municipal Center", "ADDRESS": "2000 14TH STREET NW", "ZIPCODE": "20009", "ADDRESS_ID": 239976, "Y": 138842.23, "X": 397189.88, "DIFFX": 0, "DIFFY": 0 }, "geometry": { "type": "Point", "coordinates": [ -77.032405824536426, 38.917451816556763 ] } },
{ "type": "Feature", "properties": { "OBJECTID": 182, "NAME": "Industrial Bank, NA - U Street", "ADDRESS": "2000 11TH STREET NW", "ZIPCODE": "20001", "ADDRESS_ID": 218578, "Y": 138810.8, "X": 397625.13, "DIFFX": 0, "DIFFY": 0 }, "geometry": { "type": "Point", "coordinates": [ -77.027386841222111, 38.917169968846402 ] } },
{ "type": "Feature", "properties": { "OBJECTID": 183, "NAME": "M&T Bank Corporation - 19th and L Streets", "ADDRESS": "1899 L STREET NW", "ZIPCODE": "20036", "ADDRESS_ID": 241298, "Y": 137344.1, "X": 396266.86, "DIFFX": 0, "DIFFY": 0 }, "geometry": { "type": "Point", "coordinates": [ -77.043041036700885, 38.903952712844799 ] } },
{ "type": "Feature", "properties": { "OBJECTID": 184, "NAME": "M&T Bank Corporation - Chevy Chase Circle", "ADDRESS": "5630 CONNECTICUT AVENUE NW", "ZIPCODE": "20015", "ADDRESS_ID": 263863, "Y": 144200.23, "X": 393377.58, "DIFFX": 0, "DIFFY": 0 }, "geometry": { "type": "Point", "coordinates": [ -77.076417223744244, 38.965697760148913 ] } },
{ "type": "Feature", "properties": { "OBJECTID": 185, "NAME": "M&T Bank Corporation - Georgetown", "ADDRESS": "1420 WISCONSIN AVENUE NW", "ZIPCODE": "20007", "ADDRESS_ID": 277048, "Y": 137818.31, "X": 394442.05, "DIFFX": 0, "DIFFY": 0 }, "geometry": { "type": "Point", "coordinates": [ -77.064082801174507, 38.908214916605033 ] } },
{ "type": "Feature", "properties": { "OBJECTID": 186, "NAME": "M&T Bank Corporation - Georgia Avenue", "ADDRESS": "6434 GEORGIA AVENUE NW", "ZIPCODE": "20012", "ADDRESS_ID": 253291, "Y": 144519.96, "X": 397605.67, "DIFFX": 0, "DIFFY": 0 }, "geometry": { "type": "Point", "coordinates": [ -77.027631161439857, 38.968599672760455 ] } },
{ "type": "Feature", "properties": { "OBJECTID": 187, "NAME": "M&T Bank Corporation - Good Hope Market", "ADDRESS": "2865 ALABAMA AVENUE SE", "ZIPCODE": "20020", "ADDRESS_ID": 278292, "Y": 132483.63, "X": 403033.19, "DIFFX": 0, "DIFFY": 0 }, "geometry": { "type": "Point", "coordinates": [ -76.965054586869499, 38.860170410601796 ] } },
{ "type": "Feature", "properties": { "OBJECTID": 188, "NAME": "M&T Bank Corporation - K Street", "ADDRESS": "1680 K STREET NW", "ZIPCODE": "20006", "ADDRESS_ID": 300674, "Y": 137153.2, "X": 396683.24, "DIFFX": 0, "DIFFY": 0 }, "geometry": { "type": "Point", "coordinates": [ -77.038239739259339, 38.902234687923674 ] } },
{ "type": "Feature", "properties": { "OBJECTID": 189, "NAME": "M&T Bank Corporation - Metro Centre", "ADDRESS": "555 12TH STREET NW", "ZIPCODE": "20004", "ADDRESS_ID": 239135, "Y": 136542.94, "X": 397607.25, "DIFFX": 0, "DIFFY": 0 }, "geometry": { "type": "Point", "coordinates": [ -77.027585112307577, 38.896740247007251 ] } },
{ "type": "Feature", "properties": { "OBJECTID": 190, "NAME": "SunTrust Bank", "ADDRESS": "624 H STREET NW", "ZIPCODE": "20001", "ADDRESS_ID": 242976, "Y": 136854.73, "X": 398153.88, "DIFFX": null, "DIFFY": null }, "geometry": { "type": "Point", "coordinates": [ -77.021284581197875, 38.899550282659639 ] } },
{ "type": "Feature", "properties": { "OBJECTID": 191, "NAME": "The Bank of New York Mellon", "ADDRESS": "1250 H STREET NW", "ZIPCODE": "20005", "ADDRESS_ID": 240931, "Y": 136856.85, "X": 397475.23, "DIFFX": null, "DIFFY": null }, "geometry": { "type": "Point", "coordinates": [ -77.029108148932266, 38.899567692863826 ] } },
{ "type": "Feature", "properties": { "OBJECTID": 192, "NAME": "M&T Bank Corporation - Washington DC", "ADDRESS": "1350 I STREET NW", "ZIPCODE": "20005", "ADDRESS_ID": 240651, "Y": 137019.84, "X": 397285.16, "DIFFX": 0, "DIFFY": 0 }, "geometry": { "type": "Point", "coordinates": [ -77.031299943862123, 38.901035398798577 ] } },
{ "type": "Feature", "properties": { "OBJECTID": 193, "NAME": "M&T Bank Corporation - Woodley Park", "ADDRESS": "2620 CONNECTICUT AVENUE NW", "ZIPCODE": "20008", "ADDRESS_ID": 219094, "Y": 139604.3, "X": 395463.11, "DIFFX": 0, "DIFFY": 0 }, "geometry": { "type": "Point", "coordinates": [ -77.052322271018454, 38.924309571784732 ] } },
{ "type": "Feature", "properties": { "OBJECTID": 194, "NAME": "JP Morgan Chase Bank", "ADDRESS": "800 CONNECTICUT AVENUE NW", "ZIPCODE": "20006", "ADDRESS_ID": 301059, "Y": 136950.64, "X": 396665.25, "DIFFX": null, "DIFFY": null }, "geometry": { "type": "Point", "coordinates": [ -77.038446154436627, 38.900409886984335 ] } },
{ "type": "Feature", "properties": { "OBJECTID": 195, "NAME": "American Bank", "ADDRESS": "5600 CONNECTICUT AVENUE NW", "ZIPCODE": "20015", "ADDRESS_ID": 263862, "Y": 144130.19, "X": 393416.98, "DIFFX": null, "DIFFY": null }, "geometry": { "type": "Point", "coordinates": [ -77.075961921794132, 38.96506711884259 ] } },
{ "type": "Feature", "properties": { "OBJECTID": 196, "NAME": "Bank of America", "ADDRESS": "4301 49TH STREET NW", "ZIPCODE": "20016", "ADDRESS_ID": 266468, "Y": 141856.12, "X": 391642.74, "DIFFX": null, "DIFFY": null }, "geometry": { "type": "Point", "coordinates": [ -77.096406657782182, 38.944566607031426 ] } },
{ "type": "Feature", "properties": { "OBJECTID": 197, "NAME": "Wells Fargo Bank", "ADDRESS": "3700 CALVERT STREET NW", "ZIPCODE": "20007", "ADDRESS_ID": 271794, "Y": 139385.8, "X": 393631.39, "DIFFX": null, "DIFFY": null }, "geometry": { "type": "Point", "coordinates": [ -77.073443861319049, 38.922329887187693 ] } },
{ "type": "Feature", "properties": { "OBJECTID": 198, "NAME": "Wells Fargo Bank", "ADDRESS": "4302 CONNECTICUT AVENUE NW", "ZIPCODE": "20008", "ADDRESS_ID": 304857, "Y": 141975.69, "X": 394380.66, "DIFFX": null, "DIFFY": null }, "geometry": { "type": "Point", "coordinates": [ -77.064824636785289, 38.945665508198161 ] } },
{ "type": "Feature", "properties": { "OBJECTID": 199, "NAME": "Wells Fargo Bank", "ADDRESS": "5100 WISCONSIN AVENUE NW", "ZIPCODE": "20016", "ADDRESS_ID": 265883, "Y": 143165.7, "X": 392731.23, "DIFFX": null, "DIFFY": null }, "geometry": { "type": "Point", "coordinates": [ -77.083864371651543, 38.956373340333975 ] } },
{ "type": "Feature", "properties": { "OBJECTID": 200, "NAME": "Wells Fargo Bank", "ADDRESS": "5701 CONNECTICUT AVENUE NW", "ZIPCODE": "20015", "ADDRESS_ID": 263948, "Y": 144267.13, "X": 393414.22, "DIFFX": null, "DIFFY": null }, "geometry": { "type": "Point", "coordinates": [ -77.075995084084923, 38.966300687256471 ] } },
{ "type": "Feature", "properties": { "OBJECTID": 201, "NAME": "Wells Fargo Bank", "ADDRESS": "4841 MASSACHUSETTS AVENUE NW", "ZIPCODE": "20016", "ADDRESS_ID": 284990, "Y": 141961.01, "X": 391700.17, "DIFFX": null, "DIFFY": null }, "geometry": { "type": "Point", "coordinates": [ -77.095745449058839, 38.945512029994056 ] } },
{ "type": "Feature", "properties": { "OBJECTID": 202, "NAME": "Wells Fargo Bank", "ADDRESS": "5201 MACARTHUR BOULEVARD NW", "ZIPCODE": "20016", "ADDRESS_ID": 307557, "Y": 139918.81, "X": 391043.95, "DIFFX": null, "DIFFY": null }, "geometry": { "type": "Point", "coordinates": [ -77.103288650908056, 38.927108846536626 ] } },
{ "type": "Feature", "properties": { "OBJECTID": 203, "NAME": "SunTrust Bank", "ADDRESS": "6422 GEORGIA AVENUE NW", "ZIPCODE": "20012", "ADDRESS_ID": 285336, "Y": 144465.58, "X": 397599.02, "DIFFX": null, "DIFFY": null }, "geometry": { "type": "Point", "coordinates": [ -77.027707707254976, 38.968109786337997 ] } },
{ "type": "Feature", "properties": { "OBJECTID": 204, "NAME": "United Bank", "ADDRESS": "3050 MILITARY ROAD NW", "ZIPCODE": "20015", "ADDRESS_ID": 274717, "Y": 143613.54, "X": 394665.1, "DIFFX": null, "DIFFY": null }, "geometry": { "type": "Point", "coordinates": [ -77.061556197633308, 38.960421474737316 ] } },
{ "type": "Feature", "properties": { "OBJECTID": 205, "NAME": "Wells Fargo Bank", "ADDRESS": "125 MICHIGAN AVENUE NE", "ZIPCODE": "20017", "ADDRESS_ID": 285983, "Y": 139955.63, "X": 399628.64, "DIFFX": null, "DIFFY": null }, "geometry": { "type": "Point", "coordinates": [ -77.004285045978719, 38.92748609911532 ] } },
{ "type": "Feature", "properties": { "OBJECTID": 206, "NAME": "Wells Fargo Bank", "ADDRESS": "2119 BLADENSBURG ROAD NE", "ZIPCODE": "20018", "ADDRESS_ID": 51509, "Y": 139079.64, "X": 402578.48, "DIFFX": null, "DIFFY": null }, "geometry": { "type": "Point", "coordinates": [ -76.970268897599396, 38.91959119652892 ] } },
{ "type": "Feature", "properties": { "OBJECTID": 207, "NAME": "SunTrust Bank", "ADDRESS": "2845 ALABAMA AVENUE SE", "ZIPCODE": "20020", "ADDRESS_ID": 278282, "Y": 132357.23, "X": 402892.75, "DIFFX": null, "DIFFY": null }, "geometry": { "type": "Point", "coordinates": [ -76.96667323466005, 38.85903221903893 ] } },
{ "type": "Feature", "properties": { "OBJECTID": 208, "NAME": "Wells Fargo Bank", "ADDRESS": "3200 PENNSYLVANIA AVENUE SE", "ZIPCODE": "20020", "ADDRESS_ID": 287751, "Y": 133563.93, "X": 403454.24, "DIFFX": null, "DIFFY": null }, "geometry": { "type": "Point", "coordinates": [ -76.960197922791878, 38.869900647757653 ] } },
{ "type": "Feature", "properties": { "OBJECTID": 209, "NAME": "Bank of America", "ADDRESS": "4675 SOUTH CAPITOL STREET SW", "ZIPCODE": "20032", "ADDRESS_ID": 276659, "Y": 128156.63, "X": 399845.08, "DIFFX": null, "DIFFY": null }, "geometry": { "type": "Point", "coordinates": [ -77.001786255975631, 38.821196058395223 ] } },
{ "type": "Feature", "properties": { "OBJECTID": 210, "NAME": "Wells Fargo Bank", "ADDRESS": "1545 ALABAMA AVENUE SE", "ZIPCODE": "20032", "ADDRESS_ID": 304503, "Y": 130929.03, "X": 401619.77, "DIFFX": null, "DIFFY": null }, "geometry": { "type": "Point", "coordinates": [ -76.981343335733143, 38.846169639347025 ] } },
{ "type": "Feature", "properties": { "OBJECTID": 211, "NAME": "Wells Fargo Bank - DESOTO", "ADDRESS": "1447 P STREET NW", "ZIPCODE": "20005", "ADDRESS_ID": 306675, "Y": 137994.97, "X": 397075.24, "DIFFX": 0, "DIFFY": 0 }, "geometry": { "type": "Point", "coordinates": [ -77.03372413073923, 38.909819038500892 ] } },
{ "type": "Feature", "properties": { "OBJECTID": 212, "NAME": "Wells Fargo Bank - G Street", "ADDRESS": "1310 G STREET NW", "ZIPCODE": "20005", "ADDRESS_ID": 240663, "Y": 136696.01, "X": 397343.59, "DIFFX": 0, "DIFFY": 0 }, "geometry": { "type": "Point", "coordinates": [ -77.030625089186259, 38.898118399970208 ] } },
{ "type": "Feature", "properties": { "OBJECTID": 213, "NAME": "Wells Fargo Bank - Georgetown", "ADDRESS": "2901 M STREET NW", "ZIPCODE": "20007", "ADDRESS_ID": 272085, "Y": 137502.93, "X": 394947.29, "DIFFX": 0, "DIFFY": 0 }, "geometry": { "type": "Point", "coordinates": [ -77.058255305707732, 38.90537691386384 ] } },
{ "type": "Feature", "properties": { "OBJECTID": 214, "NAME": "Wells Fargo Bank - K Street", "ADDRESS": "1510 K STREET NW", "ZIPCODE": "20005", "ADDRESS_ID": 304082, "Y": 137147.17, "X": 396952.2, "DIFFX": 0, "DIFFY": 0 }, "geometry": { "type": "Point", "coordinates": [ -77.0351389922198, 38.902181341364013 ] } },
{ "type": "Feature", "properties": { "OBJECTID": 215, "NAME": "Wells Fargo Bank - Market Square", "ADDRESS": "801 PENNSYLVANIA AVENUE NW", "ZIPCODE": "20004", "ADDRESS_ID": 279946, "Y": 136287.06, "X": 397960.83, "DIFFX": 0, "DIFFY": 0 }, "geometry": { "type": "Point", "coordinates": [ -77.023508399784347, 38.894436077483512 ] } },
{ "type": "Feature", "properties": { "OBJECTID": 216, "NAME": "Wells Fargo Bank - Navy Yard Metro", "ADDRESS": "20 M STREET SE", "ZIPCODE": "20003", "ADDRESS_ID": 301132, "Y": 134328.67, "X": 399314.32, "DIFFX": 0, "DIFFY": 0 }, "geometry": { "type": "Point", "coordinates": [ -77.007904364610212, 38.876796248209345 ] } },
{ "type": "Feature", "properties": { "OBJECTID": 217, "NAME": "Wells Fargo Bank - NOMA Capitol Plaza", "ADDRESS": "1200 1ST STREET NE", "ZIPCODE": "20002", "ADDRESS_ID": 302635, "Y": 137581.05, "X": 399448.73, "DIFFX": 0, "DIFFY": 0 }, "geometry": { "type": "Point", "coordinates": [ -77.00635797511066, 38.906094997825349 ] } },
{ "type": "Feature", "properties": { "OBJECTID": 218, "NAME": "Wells Fargo Bank - North Capitol and E", "ADDRESS": "444 NORTH CAPITOL STREET NW", "ZIPCODE": "20001", "ADDRESS_ID": 279785, "Y": 136441.56, "X": 399147.67, "DIFFX": 0, "DIFFY": 0 }, "geometry": { "type": "Point", "coordinates": [ -77.009827535512855, 38.8958298226922 ] } },
{ "type": "Feature", "properties": { "OBJECTID": 219, "NAME": "Wells Fargo Bank - The Dunbar at Howard", "ADDRESS": "1901 7TH STREET NW", "ZIPCODE": "20001", "ADDRESS_ID": 306547, "Y": 138652.27, "X": 398115.43, "DIFFX": 0, "DIFFY": 0 }, "geometry": { "type": "Point", "coordinates": [ -77.021732771248935, 38.915743066178564 ] } },
{ "type": "Feature", "properties": { "OBJECTID": 220, "NAME": "Wells Fargo Bank - Tivoli Square", "ADDRESS": "3325 14TH STREET NW", "ZIPCODE": "20010", "ADDRESS_ID": 300784, "Y": 140331.72, "X": 397187.33, "DIFFX": 0, "DIFFY": 0 }, "geometry": { "type": "Point", "coordinates": [ -77.032441332638896, 38.930869610836254 ] } },
{ "type": "Feature", "properties": { "OBJECTID": 221, "NAME": "Capital One Bank - Pennsylvania Avenue", "ADDRESS": "1717 PENNSYLVANIA AVENUE NW", "ZIPCODE": "20006", "ADDRESS_ID": 279332, "Y": 136846.4, "X": 396496.29, "DIFFX": 0, "DIFFY": 0 }, "geometry": { "type": "Point", "coordinates": [ -77.040393437534604, 38.899470198304513 ] } },
{ "type": "Feature", "properties": { "OBJECTID": 222, "NAME": "Capital One Bank - Spring Valley", "ADDRESS": "4860 MASSACHUSETTS AVENUE NW", "ZIPCODE": "20016", "ADDRESS_ID": 266470, "Y": 141902.02, "X": 391666.11, "DIFFX": 0, "DIFFY": 0 }, "geometry": { "type": "Point", "coordinates": [ -77.096137633199149, 38.944980309118066 ] } },
{ "type": "Feature", "properties": { "OBJECTID": 223, "NAME": "Capital One Bank - Tenley Town", "ADDRESS": "4000 WISCONSIN AVENUE NW", "ZIPCODE": "20016", "ADDRESS_ID": 222230, "Y": 141535.98, "X": 393333.56, "DIFFX": 0, "DIFFY": 0 }, "geometry": { "type": "Point", "coordinates": [ -77.076899265238211, 38.941697153247283 ] } },
{ "type": "Feature", "properties": { "OBJECTID": 224, "NAME": "Cardinal Bank - Georgetown", "ADDRESS": "1825 WISCONSIN AVENUE NW", "ZIPCODE": "20007", "ADDRESS_ID": 309641, "Y": 138634.61, "X": 394163.53, "DIFFX": 0, "DIFFY": 0 }, "geometry": { "type": "Point", "coordinates": [ -77.067300941745287, 38.915566617831196 ] } },
{ "type": "Feature", "properties": { "OBJECTID": 225, "NAME": "Cardinal Bank - K Street", "ADDRESS": "1776 K STREET NW", "ZIPCODE": "20006", "ADDRESS_ID": 236718, "Y": 137148.22, "X": 396423.16, "DIFFX": 0, "DIFFY": 0 }, "geometry": { "type": "Point", "coordinates": [ -77.041238059945883, 38.902188806370987 ] } },
{ "type": "Feature", "properties": { "OBJECTID": 226, "NAME": "Citibank - 9th and H St NW", "ADDRESS": "750 9TH STREET NW", "ZIPCODE": "20001", "ADDRESS_ID": 279928, "Y": 136850.4, "X": 397881.24, "DIFFX": 0, "DIFFY": 0 }, "geometry": { "type": "Point", "coordinates": [ -77.024427595043974, 38.899510661478317 ] } },
{ "type": "Feature", "properties": { "OBJECTID": 227, "NAME": "Citibank - Capitol Hill", "ADDRESS": "600 PENNSYLVANIA AVENUE SE", "ZIPCODE": "20003", "ADDRESS_ID": 5839, "Y": 135315.02, "X": 400199.02, "DIFFX": 0, "DIFFY": 0 }, "geometry": { "type": "Point", "coordinates": [ -76.997708401681479, 38.885681918949459 ] } },
{ "type": "Feature", "properties": { "OBJECTID": 228, "NAME": "Congressional Bank", "ADDRESS": "2101 K STREET NW", "ZIPCODE": "20037", "ADDRESS_ID": 218615, "Y": 137219.4, "X": 395935.38, "DIFFX": null, "DIFFY": null }, "geometry": { "type": "Point", "coordinates": [ -77.046861876058969, 38.902827900685857 ] } },
{ "type": "Feature", "properties": { "OBJECTID": 229, "NAME": "John Marshall Bank", "ADDRESS": "1330 NEW HAMPSHIRE AVENUE NW", "ZIPCODE": "20036", "ADDRESS_ID": 226576, "Y": 137801.46, "X": 396072.49, "DIFFX": null, "DIFFY": null }, "geometry": { "type": "Point", "coordinates": [ -77.045284511642478, 38.908071924465425 ] } },
{ "type": "Feature", "properties": { "OBJECTID": 230, "NAME": "JP Morgan Chase Bank", "ADDRESS": "800 CONNECTICUT AVENUE NW", "ZIPCODE": "20006", "ADDRESS_ID": 301059, "Y": 136950.64, "X": 396665.25, "DIFFX": null, "DIFFY": null }, "geometry": { "type": "Point", "coordinates": [ -77.038446154436627, 38.900409886984335 ] } }
]
}
